id,dt,name,Lon,Lat,temp,feels_like,temp_min,temp_max,pressure,humidity,wind_speed,wind_deg,numclouds,tempdiff,lon_cat,lat_cat,humidity_cat,temp_cat,pressure_cat,wind_speed_cat,wind_deg_cat
5380420,1637716160,Pacifica,-122.4869,37.6138,14.38,13.83,12.45,16.58,1017,75,0.45,49,40,4.129999999999999,"[-125,-115)","[35,40)","[60,80)",High,Low,Very Low,East
5373129,1637716160,Millbrae,-122.38720000000001,37.5985,14.64,14.09,12.66,16.79,1017,74,0,0,40,4.129999999999999,"[-125,-115)","[35,40)","[60,80)",High,Low,Very Low,North
5331920,1637716160,Burlingame,-122.3661,37.5841,14.6,14.02,12.62,16.75,1017,73,0,0,40,4.130000000000001,"[-125,-115)","[35,40)","[60,80)",High,Low,Very Low,North
5391749,1637716160,San Bruno,-122.4111,37.6305,14.66,14.09,12.66,16.79,1017,73,0,0,40,4.129999999999999,"[-125,-115)","[35,40)","[60,80)",High,Low,Very Low,North
5392423,1637716160,San Mateo,-122.3255,37.563,14.6,14.02,12.62,16.75,1016,73,0,0,40,4.130000000000001,"[-125,-115)","[35,40)","[60,80)",High,Low,Very Low,North
5397765,1637716160,South San Francisco,-122.4078,37.6547,14.69,14.12,12.65,16.78,1017,73,0,0,40,4.130000000000001,"[-125,-115)","[35,40)","[60,80)",High,Low,Very Low,North
5327455,1637716160,Belmont,-122.2758,37.5202,14.6,13.97,12.63,16.75,1016,71,1.54,300,20,4.119999999999999,"[-125,-115)","[35,40)","[60,80)",High,Low,Very Low,West
5391760,1637716160,San Carlos,-122.2605,37.5072,14.61,13.93,12.63,16.76,1016,69,1.54,300,20,4.130000000000001,"[-125,-115)","[35,40)","[60,80)",High,Low,Very Low,West
5350159,1637716160,Foster City,-122.2711,37.5586,14.69,14.02,12.68,16.81,1016,69,1.54,300,20,4.129999999999999,"[-125,-115)","[35,40)","[60,80)",High,Low,Very Low,West
5341430,1637716160,Daly City,-122.4619,37.7058,14.01,13.35,11.93,16.06,1016,72,1.34,284,40,4.129999999999999,"[-125,-115)","[35,40)","[60,80)",High,Low,Very Low,West
5386834,1637716160,Redwood City,-122.2364,37.4852,14.64,13.96,12.66,16.79,1015,69,1.54,300,20,4.129999999999999,"[-125,-115)","[35,40)","[60,80)",High,Low,Very Low,West
5372223,1637716160,Menlo Park,-122.1822,37.4538,14.57,13.86,12.56,16.68,1016,68,3.09,310,20,4.119999999999999,"[-125,-115)","[35,40)","[60,80)",High,Low,Low,West
5391959,1637716160,San Francisco,-122.4194,37.7749,14.74,14.05,12.29,16.72,1016,68,0.45,293,40,4.43,"[-125,-115)","[35,40)","[60,80)",High,Low,Very Low,West
5345032,1637716160,East Palo Alto,-122.1411,37.4688,14.7,13.98,12.66,16.79,1017,67,3.09,310,20,4.129999999999999,"[-125,-115)","[35,40)","[60,80)",High,Low,Low,West
5380748,1637716160,Palo Alto,-122.143,37.4419,14.68,13.93,12.65,16.77,1016,66,3.09,310,20,4.119999999999999,"[-125,-115)","[35,40)","[60,80)",High,Low,Low,West
5368335,1637716160,Los Altos,-122.1141,37.3852,14.46,13.68,12.38,16.51,1016,66,0.45,301,1,4.130000000000001,"[-125,-115)","[35,40)","[60,80)",High,Low,Very Low,West
5322737,1637716160,Alameda,-122.2416,37.7652,14.8,14.09,12.65,16.77,1017,67,1.54,30,40,4.119999999999999,"[-125,-115)","[35,40)","[60,80)",High,Low,Very Low,North
5392281,1637716160,San Lorenzo,-122.1244,37.681,14.74,13.99,12.63,16.75,1016,66,1.54,310,1,4.119999999999999,"[-125,-115)","[35,40)","[60,80)",High,Low,Very Low,West
5375480,1637716160,Mountain View,-122.0838,37.3861,14.61,13.82,12.5,16.63,1016,65,0.45,301,1,4.129999999999999,"[-125,-115)","[35,40)","[60,80)",High,Low,Very Low,West
5392263,1637716160,San Leandro,-122.1561,37.7249,14.72,13.97,12.59,16.72,1017,66,0.45,307,40,4.129999999999999,"[-125,-115)","[35,40)","[60,80)",High,Low,Very Low,West
5378538,1637716160,Oakland,-122.2708,37.8044,14.81,14.12,12.62,16.75,1017,68,0.89,306,40,4.130000000000001,"[-125,-115)","[35,40)","[60,80)",High,Low,Very Low,West
5325011,1637716160,Ashland,-122.1139,37.6946,14.73,14.01,12.61,16.73,1017,67,1.54,310,1,4.120000000000001,"[-125,-115)","[35,40)","[60,80)",High,Low,Very Low,West
5376803,1637716160,Newark,-122.0402,37.5297,14.77,13.97,12.67,16.79,1016,64,1.79,36,20,4.119999999999999,"[-125,-115)","[35,40)","[60,80)",High,Low,Very Low,North
5355933,1637716160,Hayward,-122.0808,37.6688,14.56,13.74,12.45,16.58,1016,64,0.45,10,1,4.129999999999999,"[-125,-115)","[35,40)","[60,80)",High,Low,Very Low,North
5334928,1637716160,Castro Valley,-122.0863,37.6941,14.47,13.7,12.35,16.48,1016,66,0.45,9,1,4.130000000000001,"[-125,-115)","[35,40)","[60,80)",High,Low,Very Low,North
5400075,1637716160,Sunnyvale,-122.0363,37.3688,14.61,13.82,12.46,16.59,1016,65,0.45,248,1,4.129999999999999,"[-125,-115)","[35,40)","[60,80)",High,Low,Very Low,West
5404554,1637716160,Union City,-122.0192,37.5958,14.68,13.87,12.57,16.7,1016,64,1.34,350,1,4.129999999999999,"[-125,-115)","[35,40)","[60,80)",High,Low,Very Low,North
5350734,1637716160,Fremont,-121.9886,37.5483,14.72,13.89,12.59,16.72,1016,63,1.79,36,20,4.129999999999999,"[-125,-115)","[35,40)","[60,80)",High,Low,Very Low,North
5341145,1637716160,Cupertino,-122.0322,37.323,14.4,13.59,12.23,16.36,1016,65,1.79,289,75,4.129999999999999,"[-125,-115)","[35,40)","[60,80)",High,Low,Very Low,West
5327684,1637716160,Berkeley,-122.2728,37.8716,14.56,13.85,12.06,16.48,1017,68,0.45,355,40,4.42,"[-125,-115)","[35,40)","[60,80)",High,Low,Very Low,North
5322850,1637716160,Albany,-122.2978,37.8869,14.81,14.12,12.3,16.73,1017,68,0.45,170,40,4.43,"[-125,-115)","[35,40)","[60,80)",High,Low,Very Low,South
5345623,1637716160,El Cerrito,-122.3116,37.9158,14.77,14.1,12.27,16.7,1016,69,0.45,83,100,4.43,"[-125,-115)","[35,40)","[60,80)",High,Low,Very Low,East
5374671,1637716160,Moraga,-122.1297,37.8349,13.84,13,11.69,15.82,1016,66,3.58,26,40,4.130000000000001,"[-125,-115)","[35,40)","[60,80)",High,Low,Low,North
5393485,1637716160,Saratoga,-122.023,37.2638,14.02,13.2,11.83,15.96,1016,66,0.45,338,75,4.130000000000001,"[-125,-115)","[35,40)","[60,80)",High,Low,Very Low,North
5387428,1637716160,Richmond,-122.3477,37.9358,14.8,14.11,12.3,16.73,1016,68,0.89,35,100,4.43,"[-125,-115)","[35,40)","[60,80)",High,Low,Very Low,North
5379678,1637716160,Orinda,-122.1797,37.8772,13.78,12.99,11.32,15.74,1016,68,0.45,188,1,4.42,"[-125,-115)","[35,40)","[60,80)",High,Low,Very Low,South
5393015,1637716160,Santa Clara,-121.9552,37.3541,14.78,13.98,12.56,16.68,1017,64,0.45,57,75,4.119999999999999,"[-125,-115)","[35,40)","[60,80)",High,Low,Very Low,East
5392567,1637716160,San Rafael,-122.5311,37.9735,14.61,14.06,12.21,16.64,1016,74,0,0,1,4.43,"[-125,-115)","[35,40)","[60,80)",High,Low,Very Low,North
5373327,1637716160,Milpitas,-121.9066,37.4283,14.88,14.09,12.67,16.79,1019,64,3.6,300,75,4.119999999999999,"[-125,-115)","[35,40)","[60,80)",High,Low,Low,West
5392508,1637716160,San Pablo,-122.3455,37.9622,14.8,14.11,12.31,16.73,1016,68,0.89,35,100,4.42,"[-125,-115)","[35,40)","[60,80)",High,Low,Very Low,North
5333689,1637716160,Campbell,-121.95,37.2872,14.56,13.74,12.31,16.44,1016,64,0.45,321,75,4.130000000000001,"[-125,-115)","[35,40)","[60,80)",High,Low,Very Low,North
5364226,1637716160,Lafayette,-122.118,37.8858,14.27,13.53,12.18,16.25,1016,68,0.45,143,1,4.07,"[-125,-115)","[35,40)","[60,80)",High,Low,Very Low,South
5344157,1637716160,Dublin,-121.9358,37.7021,14.06,13.19,11.96,16.09,1014,64,0.45,54,1,4.129999999999999,"[-125,-115)","[35,40)","[60,80)",High,Low,Very Low,East
5368518,1637716160,Los Gatos,-121.9747,37.2266,14.25,13.43,12.01,16.11,1016,65,0.89,281,75,4.1,"[-125,-115)","[35,40)","[60,80)",High,Low,Very Low,West
5392593,1637716160,San Ramon,-121.978,37.7799,13.83,13.02,11.72,15.85,1014,67,1.34,334,1,4.129999999999999,"[-125,-115)","[35,40)","[60,80)",High,Low,Very Low,North
5392171,1637716160,San Jose,-121.895,37.3394,14.8,13.98,12.53,16.66,1017,63,3.6,300,75,4.130000000000001,"[-125,-115)","[35,40)","[60,80)",High,Low,Low,West
5341531,1637716160,Danville,-122,37.8216,14.09,13.3,11.98,16.11,1014,67,1.34,334,1,4.129999999999999,"[-125,-115)","[35,40)","[60,80)",High,Low,Very Low,North
5383777,1637716160,Pleasanton,-121.8747,37.6624,14.12,13.26,12.01,16.14,1016,64,0.45,54,1,4.130000000000001,"[-125,-115)","[35,40)","[60,80)",High,Low,Very Low,East
5383187,1637716160,Pinole,-122.2989,38.0044,14.63,13.95,12.16,16.58,1015,69,0.45,73,100,4.419999999999998,"[-125,-115)","[35,40)","[60,80)",High,Low,Very Low,East
5406990,1637716160,Walnut Creek,-122.065,37.9063,14.5,13.76,12.42,16.49,1016,67,0.45,33,1,4.0699999999999985,"[-125,-115)","[35,40)","[60,80)",High,Low,Very Low,North
5356451,1637716160,Hercules,-122.2886,38.0171,14.76,14.09,12.29,16.72,1015,69,0.45,92,100,4.43,"[-125,-115)","[35,40)","[60,80)",High,Low,Very Low,East
5323566,1637716161,Alum Rock,-121.8272,37.3661,14.68,13.82,12.39,16.52,1017,62,0.89,124,40,4.129999999999999,"[-125,-115)","[35,40)","[60,80)",High,Low,Very Low,East
5383720,1637716160,Pleasant Hill,-122.0608,37.948,14.72,14,12.3,16.73,1016,67,0.45,143,1,4.43,"[-125,-115)","[35,40)","[60,80)",High,Low,Very Low,South
5370868,1637716160,Martinez,-122.1341,38.0194,14.79,14.1,12.36,16.78,1016,68,1.54,80,1,4.420000000000002,"[-125,-115)","[35,40)","[60,80)",High,Low,Very Low,East
5339111,1637716160,Concord,-122.0311,37.978,14.65,13.92,12.25,16.67,1016,67,0.45,48,1,4.420000000000002,"[-125,-115)","[35,40)","[60,80)",High,Low,Very Low,East
5367440,1637716160,Livermore,-121.768,37.6819,13.79,12.87,11.72,15.85,1017,63,2.57,70,1,4.129999999999999,"[-125,-115)","[35,40)","[60,80)",High,Low,Very Low,East
5378044,1637716160,Novato,-122.5697,38.1074,14.66,14.14,12.35,16.77,1018,75,0,0,1,4.42,"[-125,-115)","[35,40)","[60,80)",High,Low,Very Low,North
5327550,1637716160,Benicia,-122.1586,38.0494,14.79,14.1,12.36,16.78,1017,68,1.54,80,1,4.420000000000002,"[-125,-115)","[35,40)","[60,80)",High,Low,Very Low,East
5405380,1637716160,Vallejo,-122.2566,38.1041,14.71,14.06,12.27,16.7,1017,70,0.89,166,1,4.43,"[-125,-115)","[35,40)","[60,80)",High,Low,Very Low,South
5393052,1637716160,Santa Cruz,-122.0308,36.9741,14.97,14.35,12.64,16.74,1015,70,2.68,38,100,4.099999999999998,"[-125,-115)","[35,40)","[60,80)",High,Low,Very Low,North
5367314,1637716160,Live Oak,-121.9805,36.9836,14.84,14.21,12.49,16.59,1015,70,0.89,310,1,4.1,"[-125,-115)","[35,40)","[60,80)",High,Low,Very Low,West
5326561,1637716160,Bay Point,-121.9616,38.0291,14.6,13.84,12.23,16.65,1016,66,1.34,358,1,4.419999999999998,"[-125,-115)","[35,40)","[60,80)",High,Low,Very Low,North
5326563,1637716160,Bay Point,-121.9419,38.0268,14.63,13.85,12.26,16.68,1017,65,1.34,358,1,4.42,"[-125,-115)","[35,40)","[60,80)",High,Low,Very Low,North
5323694,1637716160,American Canyon,-122.2608,38.1749,14.72,14.05,12.32,16.75,1017,69,0.89,166,1,4.43,"[-125,-115)","[35,40)","[60,80)",High,Low,Very Low,South
5383465,1637716160,Pittsburg,-121.8847,38.028,14.7,13.92,12.34,16.77,1017,65,1.34,358,1,4.43,"[-125,-115)","[35,40)","[60,80)",High,Low,Very Low,North
5382232,1637716160,Petaluma,-122.6367,38.2324,14.59,13.96,12.34,16.76,1017,71,0.45,203,1,4.420000000000002,"[-125,-115)","[35,40)","[60,80)",High,Low,Very Low,South
5324200,1637716160,Antioch,-121.8058,38.0049,14.62,13.81,12.68,16.75,1018,64,0.45,271,100,4.07,"[-125,-115)","[35,40)","[60,80)",High,Low,Very Low,West
5330642,1637716160,Brentwood,-121.7258,37.9269,14.42,13.64,12.55,16.62,1018,66,0.89,5,100,4.07,"[-125,-115)","[35,40)","[60,80)",High,Low,Very Low,North
5374764,1637716160,Morgan Hill,-121.6544,37.1305,14.44,13.58,11.75,16.09,1015,63,3.6,320,1,4.34,"[-125,-115)","[35,40)","[60,80)",High,Low,Low,North
5378566,1637716160,Oakley,-121.7124,37.9974,14.58,13.79,12.71,16.79,1018,65,0.89,338,100,4.079999999999998,"[-125,-115)","[35,40)","[60,80)",High,Low,Very Low,North
5376095,1637716160,Napa,-122.2855,38.2971,14.68,13.8,12.36,16.79,1018,61,2.57,230,1,4.43,"[-125,-115)","[35,40)","[60,80)",High,Low,Very Low,West
5399629,1637716160,Suisun,-122.0402,38.2383,14.75,13.82,12.39,16.81,1012,59,3.09,350,1,4.419999999999998,"[-125,-115)","[35,40)","[40,60)",High,Low,Low,North
5347335,1637716160,Fairfield,-122.04,38.2494,14.73,13.8,12.72,16.79,1012,59,3.09,350,1,4.0699999999999985,"[-125,-115)","[35,40)","[40,60)",High,Low,Low,North
5407529,1637716160,Watsonville,-121.7569,36.9102,14.95,14.43,12.64,16.74,1015,74,2.57,120,1,4.099999999999998,"[-125,-115)","[35,40)","[60,80)",High,Low,Very Low,East
5388564,1637716160,Rohnert Park,-122.7011,38.3396,14.4,13.54,12.19,16.62,1017,63,1.79,260,100,4.4300000000000015,"[-125,-115)","[35,40)","[60,80)",High,Low,Very Low,West
5403191,1637716160,Tracy,-121.4252,37.7397,14.03,13.63,12.66,16.7,1016,82,3.42,299,100,4.039999999999999,"[-125,-115)","[35,40)","[80,100)",High,Low,Low,West
5352214,1637716160,Gilroy,-121.5683,37.0058,14.8,13.98,12.31,16.41,1016,63,0.89,24,1,4.1,"[-125,-115)","[35,40)","[60,80)",High,Low,Very Low,North
5405228,1637716160,Vacaville,-121.9877,38.3566,14.36,13.31,12.5,16.46,1017,56,3.09,350,1,3.960000000000001,"[-125,-115)","[35,40)","[40,60)",High,Low,Low,North
5393287,1637716160,Santa Rosa,-122.7144,38.4405,14.28,13.41,11.6,16.08,1028,63,0.7,4,100,4.479999999999999,"[-125,-115)","[35,40)","[60,80)",High,High,Very Low,North
5385082,1637716160,Prunedale,-121.6697,36.7758,14.59,14.14,12.56,16.66,1017,78,3.09,260,1,4.1,"[-125,-115)","[35,40)","[60,80)",High,Low,Low,West
5370493,1637716160,Marina,-121.8022,36.6844,14.14,13.75,12.36,16.66,1016,82,0.89,194,1,4.300000000000001,"[-125,-115)","[35,40)","[80,100)",High,Low,Very Low,South
5380437,1637716160,Pacific Grove,-121.9166,36.6177,13.5,13.07,11.94,16.43,1016,83,0.89,194,1,4.49,"[-125,-115)","[35,40)","[80,100)",High,Low,Very Low,South
5365425,1637716160,Lathrop,-121.2766,37.8227,13.63,13.16,11.86,15.88,1016,81,2.57,260,1,4.020000000000001,"[-125,-115)","[35,40)","[80,100)",High,Low,Very Low,West
5374361,1637716160,Monterey,-121.8947,36.6002,13.67,13.26,12.19,16.67,1016,83,0.89,194,1,4.480000000000002,"[-125,-115)","[35,40)","[80,100)",High,Low,Very Low,South
5394136,1637716160,Seaside,-121.8516,36.6111,13.77,13.34,12.21,16.7,1016,82,0.89,194,1,4.489999999999998,"[-125,-115)","[35,40)","[80,100)",High,Low,Very Low,South
5370164,1637716160,Manteca,-121.216,37.7974,13.55,13.08,12.02,15.61,1017,81,2.57,260,1,3.59,"[-125,-115)","[35,40)","[80,100)",High,Low,Very Low,West
5399020,1637716160,Stockton,-121.2908,37.9577,13.85,13.33,12.06,16.14,1017,78,2.57,260,1,4.08,"[-125,-115)","[35,40)","[60,80)",High,Low,Very Low,West
5391295,1637716160,Salinas,-121.6555,36.6777,14.2,13.69,12.35,16.66,1017,77,3.09,260,1,4.3100000000000005,"[-125,-115)","[35,40)","[60,80)",High,Low,Low,West
5410004,1637716160,Windsor,-122.8164,38.5471,14.03,13.21,11.01,16.11,1017,66,0.92,349,92,5.1,"[-125,-115)","[35,40)","[60,80)",High,Low,Very Low,North
5343303,1637716160,Dixon,-121.8233,38.4455,14.77,13.66,12.74,16.56,1017,52,3.6,340,1,3.8199999999999985,"[-125,-115)","[35,40)","[40,60)",High,Low,Low,North
5381515,1637716160,Patterson,-121.1297,37.4716,13.63,12.98,11.9,16.03,1016,74,4.76,318,100,4.130000000000001,"[-125,-115)","[35,40)","[60,80)",High,Low,Low,North
5357499,1637716160,Hollister,-121.4016,36.8525,14.68,13.8,11.89,16.19,1014,61,3.09,290,1,4.300000000000001,"[-125,-115)","[35,40)","[60,80)",High,Low,Low,West
5367565,1637716160,Lodi,-121.2725,38.1302,14.22,13.79,11.99,16.59,1015,80,0.45,355,100,4.6,"[-125,-115)","[35,40)","[80,100)",High,Low,Very Low,North
5373900,1637716160,Modesto,-120.9969,37.6391,13,12.5,11.15,15.32,1016,82,4.63,290,1,4.17,"[-125,-115)","[35,40)","[80,100)",High,Low,Low,West
5341704,1637716160,Davis,-121.7405,38.5449,14.92,13.77,12.77,16.59,1016,50,3.6,340,1,3.8200000000000003,"[-125,-115)","[35,40)","[40,60)",High,Low,Low,North
5351428,1637716160,Galt,-121.3,38.2546,14.67,14.2,11.99,16.59,1016,77,0.45,355,100,4.6,"[-125,-115)","[35,40)","[60,80)",High,Low,Very Low,North
5335650,1637716160,Ceres,-120.9577,37.5949,12.99,12.41,11.14,15.31,1016,79,4.63,290,1,4.17,"[-125,-115)","[35,40)","[60,80)",High,Low,Low,West
5364271,1637716160,Laguna,-121.4238,38.421,15.04,14.27,12.74,16.1,1017,64,0.89,12,1,3.360000000000001,"[-125,-115)","[35,40)","[60,80)",High,Low,Very Low,North
5387844,1637716160,Riverbank,-120.9355,37.736,12.74,12.24,11.04,15.85,999,83,3.58,287,1,4.8100000000000005,"[-125,-115)","[35,40)","[80,100)",High,Very Low,Low,West
5346111,1637716160,Elk Grove,-121.3716,38.4088,14.99,14.24,12.7,16.06,1017,65,0.45,287,1,3.3599999999999994,"[-125,-115)","[35,40)","[60,80)",High,Low,Very Low,West
5410430,1637716160,Woodland,-121.7733,38.6785,14.85,13.77,12.8,16.03,1016,53,2.24,299,40,3.2300000000000004,"[-125,-115)","[35,40)","[40,60)",High,Low,Very Low,West
5404024,1637716160,Turlock,-120.8466,37.4947,13.3,12.57,12.16,13.95,1016,72,4.63,290,1,1.7899999999999991,"[-125,-115)","[35,40)","[60,80)",High,Low,Low,West
5349613,1637716160,Florin,-121.4088,38.496,15.02,14.22,12.3,16.63,1016,63,2.57,320,1,4.329999999999998,"[-125,-115)","[35,40)","[60,80)",High,Low,Very Low,North
5408211,1637716160,West Sacramento,-121.5302,38.5805,14.99,14.16,12.83,16.64,1018,62,1.34,10,1,3.8100000000000005,"[-125,-115)","[35,40)","[60,80)",High,Low,Very Low,North
7176039,1637716161,Vineyard,-121.3469,38.4645,14.9,14.09,12.19,16.51,1017,63,0.45,287,40,4.320000000000002,"[-125,-115)","[35,40)","[60,80)",High,Low,Very Low,West
5378500,1637716160,Oakdale,-120.8472,37.7666,13.4,12.88,11.78,15.82,991,80,3.58,287,1,4.040000000000001,"[-125,-115)","[35,40)","[80,100)",High,Very Low,Low,West
5389489,1637716160,Sacramento,-121.4944,38.5816,14.97,14.17,12.3,16.63,1017,63,1.34,10,1,4.329999999999998,"[-125,-115)","[35,40)","[60,80)",High,Low,Very Low,North
5388873,1637716160,Rosemont,-121.3647,38.5518,14.93,14.15,12.27,16.06,1016,64,2.57,350,40,3.789999999999999,"[-125,-115)","[35,40)","[60,80)",High,Low,Very Low,North
5368453,1637716160,Los Banos,-120.8499,37.0583,13.45,12.73,12.13,16.53,1015,72,3.13,18,100,4.4,"[-125,-115)","[35,40)","[60,80)",High,Low,Low,North
7260806,1637716161,Arden-Arcade,-121.3785,38.6025,14.87,14.08,12.25,16.05,1016,64,2.57,330,1,3.8000000000000007,"[-125,-115)","[35,40)","[60,80)",High,Low,Very Low,North
5397018,1637716160,Soledad,-121.3263,36.4247,14.33,12.11,11.89,16.14,1015,11,2.62,308,100,4.25,"[-125,-115)","[35,40)","[0,40)",High,Low,Very Low,West
5385941,1637716160,Rancho Cordova,-121.3027,38.5891,14.8,14.03,12.19,15.99,1016,65,2.57,350,40,3.8000000000000007,"[-125,-115)","[35,40)","[60,80)",High,Low,Very Low,North
5334336,1637716160,Carmichael,-121.3283,38.6171,14.72,13.92,12.12,15.92,1015,64,2.57,350,40,3.8000000000000007,"[-125,-115)","[35,40)","[60,80)",High,Low,Very Low,North
5387687,1637716160,Rio Linda,-121.4486,38.691,14.71,13.93,11.73,16.05,1016,65,1.34,320,1,4.32,"[-125,-115)","[35,40)","[60,80)",High,Low,Very Low,North
5337908,1637716160,Clearlake,-122.6264,38.9582,11.46,10.12,8.4,13.49,1018,56,0.56,349,13,5.09,"[-125,-115)","[35,40)","[40,60)",High,Low,Very Low,North
5377640,1637716160,North Highlands,-121.3722,38.6857,14.61,13.82,11.64,15.97,1015,65,2.57,330,1,4.33,"[-125,-115)","[35,40)","[60,80)",High,Low,Very Low,North
5349803,1637716160,Foothill Farms,-121.3511,38.6788,14.54,13.75,11.56,15.88,1015,65,2.57,330,1,4.32,"[-125,-115)","[35,40)","[60,80)",High,Low,Very Low,North
5347287,1637716160,Fair Oaks,-121.2722,38.6446,14.46,13.68,11.48,15.8,1015,66,0.45,323,40,4.32,"[-125,-115)","[35,40)","[60,80)",High,Low,Very Low,North
5325187,1637716160,Atwater,-120.6091,37.3477,12.9,12.31,11.03,15.33,1017,79,4.63,320,1,4.300000000000001,"[-125,-115)","[35,40)","[60,80)",High,Low,Low,North
5324105,1637716160,Antelope,-121.3299,38.7082,14.44,13.64,11.52,15.84,1015,65,0.45,327,1,4.32,"[-125,-115)","[35,40)","[60,80)",High,Low,Very Low,North
5337561,1637716160,Citrus Heights,-121.2811,38.7071,14.4,13.67,11.51,15.83,1015,68,0.45,327,1,4.32,"[-125,-115)","[35,40)","[60,80)",High,Low,Very Low,North
5379566,1637716160,Orangevale,-121.2258,38.6785,14.28,13.59,11.37,15.69,1015,70,0.45,323,40,4.32,"[-125,-115)","[35,40)","[60,80)",High,Low,Very Low,North
5354172,1637716160,Greenfield,-121.2438,36.3208,14.42,12.2,11.7,16.44,1015,11,4.92,360,100,4.740000000000002,"[-125,-115)","[35,40)","[0,40)",High,Low,Low,North
5349705,1637716160,Folsom,-121.1761,38.678,14.25,13.58,11.4,15.73,1015,71,0.45,323,40,4.33,"[-125,-115)","[35,40)","[60,80)",High,Low,Very Low,North
5388881,1637716160,Roseville,-121.288,38.7521,14.32,13.58,11.17,15.83,1016,68,0.89,293,1,4.66,"[-125,-115)","[35,40)","[60,80)",High,Low,Very Low,West
5372253,1637716160,Merced,-120.483,37.3022,12.96,12.35,10.99,16.31,1015,78,2.68,289,1,5.3199999999999985,"[-125,-115)","[35,40)","[60,80)",High,Low,Very Low,West
5345679,1637716160,El Dorado Hills,-121.0822,38.6857,13.01,12.3,10.27,14.6,1016,74,0.45,319,24,4.33,"[-125,-115)","[35,40)","[60,80)",High,Low,Very Low,North
5388319,1637716160,Rocklin,-121.2358,38.7907,14.03,13.29,11.35,15.67,1017,69,0.89,293,1,4.32,"[-125,-115)","[35,40)","[60,80)",High,Low,Very Low,West
5353530,1637716160,Granite Bay,-121.1638,38.7632,13.69,12.99,10.68,15.58,1016,72,2.12,341,19,4.9,"[-125,-115)","[35,40)","[60,80)",High,Low,Very Low,North
5333282,1637716160,Cameron Park,-120.9872,38.6688,12.19,11.48,9.46,13.88,1013,77,0.45,315,17,4.42,"[-125,-115)","[35,40)","[60,80)",High,Low,Very Low,North
5366375,1637716160,Lincoln,-121.293,38.8916,14.03,13.37,11.17,16.07,1016,72,2.57,330,1,4.9,"[-125,-115)","[35,40)","[60,80)",High,Low,Very Low,North
5404476,1637716160,Ukiah,-123.2078,39.1502,11.33,9.85,8.75,14.21,1019,51,1.54,130,1,5.460000000000001,"[-125,-115)","[35,40)","[40,60)",High,Low,Very Low,East
5397851,1637716160,South Yuba City,-121.6391,39.1166,14.01,13.03,11.73,16.05,1017,60,3.09,320,1,4.32,"[-125,-115)","[35,40)","[60,80)",High,Low,Low,North
5411015,1637716160,Yuba City,-121.6169,39.1405,13.98,13,11.72,16.03,1017,60,3.09,320,1,4.3100000000000005,"[-125,-115)","[35,40)","[60,80)",High,Low,Low,North
5366531,1637716160,Linda,-121.5508,39.1277,13.93,12.95,11.37,16.03,1017,60,3.09,320,1,4.660000000000002,"[-125,-115)","[35,40)","[60,80)",High,Low,Low,North
5336667,1637716160,Chowchilla,-120.2602,37.123,13.09,12.44,11.88,17.1,1016,76,3.09,300,1,5.220000000000001,"[-125,-115)","[35,40)","[60,80)",High,Low,Low,West
5369568,1637716160,Madera,-120.0607,36.9613,13.28,12.28,11.14,17.05,1016,62,3.09,300,1,5.91,"[-125,-115)","[35,40)","[60,80)",High,Low,Low,West
5379759,1637716160,Oroville,-121.5564,39.5138,13.85,13.01,11.17,15.1,1016,66,2.06,300,1,3.9299999999999997,"[-125,-115)","[35,40)","[60,80)",High,Low,Very Low,West
5336269,1637716160,Chico,-121.8375,39.7285,14.48,13.21,13.08,15.03,1016,47,1.34,3,16,1.9499999999999993,"[-125,-115)","[35,40)","[40,60)",High,Low,Very Low,North
5381002,1637716160,Paradise,-121.6219,39.7596,11.07,9.41,9.95,11.9,1017,45,2.39,18,8,1.950000000000001,"[-125,-115)","[35,40)","[40,60)",High,Low,Very Low,North
5381438,1637716160,Paso Robles,-120.691,35.6266,14.91,13.45,11.59,17.16,1014,38,3.09,320,1,5.57,"[-125,-115)","[35,40)","[0,40)",High,Low,Low,North
5325327,1637716160,Avenal,-120.129,36.0041,12.43,10.59,9.9,17.83,1014,33,2.92,356,100,7.929999999999998,"[-125,-115)","[35,40)","[0,40)",High,Low,Very Low,North
5325111,1637716160,Atascadero,-120.6707,35.4894,14.17,12.71,11.32,16.89,1013,41,2.3,40,98,5.57,"[-125,-115)","[35,40)","[40,60)",High,Low,Very Low,North
5403676,1637716160,Truckee,-120.1833,39.328,4.72,2.98,0.45,7.06,960,48,2.06,10,1,6.609999999999999,"[-125,-115)","[35,40)","[40,60)",Low,Very Low,Very Low,North
5392323,1637716160,San Luis Obispo,-120.6596,35.2827,14.93,14.36,12.59,18.16,1013,72,2.68,177,1,5.57,"[-125,-115)","[35,40)","[60,80)",High,Low,Very Low,South
5324802,1637716160,Arroyo Grande,-120.5907,35.1186,15.25,14.4,12.73,17.73,1014,60,1.34,13,1,5,"[-125,-115)","[35,40)","[60,80)",High,Low,Very Low,North
5377100,1637716160,Nipomo,-120.476,35.0428,14.96,13.95,12.31,17.3,1013,55,0.89,307,1,4.99,"[-125,-115)","[35,40)","[40,60)",High,Low,Very Low,West
5509851,1637719773,Pahrump,-115.9839,36.2083,13.63,11.52,11.29,15.59,916,18,0.89,272,0,4.300000000000001,"[-125,-115)","[35,40)","[0,40)",High,Very Low,Very Low,West
5343171,1637719773,Dinuba,-119.3871,36.5433,11.42,9.64,8.83,14.54,1015,39,2.27,333,70,5.709999999999999,"[-125,-115)","[35,40)","[0,40)",High,Low,Very Low,North
5386984,1637719773,Reedley,-119.4504,36.5963,11.54,9.82,8.81,14.52,1015,41,2.8,324,82,5.709999999999999,"[-125,-115)","[35,40)","[40,60)",High,Low,Very Low,North
5338683,1637719773,Collins (historical),-119.6207,36.8663,12.28,11.63,9.7,14.76,1015,79,0,0,20,5.0600000000000005,"[-125,-115)","[35,40)","[60,80)",High,Low,Very Low,North
5392868,1637719773,Sanger,-119.556,36.708,12.16,11.31,9.83,14.28,1016,72,0,0,20,4.449999999999999,"[-125,-115)","[35,40)","[60,80)",High,Low,Very Low,North
5406567,1637719773,Visalia,-119.2921,36.3302,11.46,10.85,8.84,14.55,1015,84,1.34,271,1,5.710000000000001,"[-125,-115)","[35,40)","[80,100)",High,Low,Very Low,West
5384471,1637719773,Porterville,-119.0168,36.0652,11.02,10.16,10.29,12.55,1016,76,0,0,1,2.2600000000000016,"[-125,-115)","[35,40)","[60,80)",High,Low,Very Low,North
5338122,1637719773,Clovis,-119.7029,36.8252,12.5,11.87,9.85,14.91,1015,79,0,0,20,5.0600000000000005,"[-125,-115)","[35,40)","[60,80)",High,Low,Very Low,North
5387494,1637719773,Ridgecrest,-117.6709,35.6225,15.4,13.49,14.82,16.33,1010,19,1.34,65,40,1.509999999999998,"[-125,-115)","[35,40)","[0,40)",High,Low,Very Low,East
5394329,1637719773,Selma,-119.6121,36.5708,11.75,10.08,8.88,14.03,1015,42,3.98,319,91,5.149999999999999,"[-125,-115)","[35,40)","[40,60)",High,Low,Low,North
5350937,1637719773,Fresno,-119.7724,36.7477,12.68,12.07,9.97,15.03,1015,79,0,0,20,5.059999999999999,"[-125,-115)","[35,40)","[60,80)",High,Low,Very Low,North
5403783,1637719773,Tulare,-119.3473,36.2077,11.65,11.06,10.61,12.9,1011,84,0.45,285,1,2.290000000000001,"[-125,-115)","[35,40)","[80,100)",High,Low,Very Low,West
5355180,1637719773,Hanford,-119.6457,36.3275,11.88,10.14,10.68,14.15,1015,39,3.58,326,89,3.4700000000000006,"[-125,-115)","[35,40)","[0,40)",High,Low,Low,North
5339539,1637719773,Corcoran,-119.5604,36.098,11.87,10.08,10.77,13.05,1015,37,2.81,338,65,2.280000000000001,"[-125,-115)","[35,40)","[0,40)",High,Low,Very Low,North
5365918,1637719773,Lemoore,-119.7829,36.3008,12.23,11.26,10.73,14.19,1016,67,4.63,330,40,3.459999999999999,"[-125,-115)","[35,40)","[60,80)",High,Low,Low,North
7262622,1637719775,Summerlin South,-115.3811,36.1027,12.12,10.09,9.9,13.96,1009,27,1.72,323,0,4.0600000000000005,"[-125,-115)","[35,40)","[0,40)",High,Very Low,Very Low,North
5342485,1637719773,Delano,-119.247,35.7688,11.97,11.08,8.87,13.32,1016,71,0,0,1,4.450000000000001,"[-125,-115)","[35,40)","[60,80)",High,Low,Very Low,North
5512909,1637719773,Spring Valley,-115.245,36.108,14.45,12.58,12.19,16.25,1011,24,0.45,0,20,4.0600000000000005,"[-125,-115)","[35,40)","[0,40)",High,Low,Very Low,North
5509403,1637719773,North Las Vegas,-115.1175,36.1989,15.48,13.66,13.21,17.27,1011,22,2.06,250,1,4.059999999999999,"[-125,-115)","[35,40)","[0,40)",High,Low,Very Low,West
5506956,1637719773,Las Vegas,-115.13720000000001,36.175,15.2,13.4,12.91,16.97,1011,24,2.06,250,1,4.059999999999999,"[-125,-115)","[35,40)","[0,40)",High,Low,Very Low,West
5513343,1637719773,Sunrise Manor,-115.0731,36.2111,15.54,13.75,13.26,17.33,1011,23,0.45,353,1,4.0699999999999985,"[-125,-115)","[35,40)","[0,40)",High,Low,Very Low,North
5503766,1637719773,Enterprise,-115.2419,36.0252,14.14,12.26,11.83,15.89,1013,25,1.79,268,20,4.0600000000000005,"[-125,-115)","[35,40)","[0,40)",High,Low,Very Low,West
5515345,1637719773,Winchester,-115.1189,36.13,15.57,13.78,13.06,17.12,1011,23,1.34,170,20,4.0600000000000005,"[-125,-115)","[35,40)","[0,40)",High,Low,Very Low,South
5509952,1637719773,Paradise,-115.1467,36.0972,15.4,13.62,12.81,16.87,1011,24,1.34,170,20,4.0600000000000005,"[-125,-115)","[35,40)","[0,40)",High,Low,Very Low,South
5515110,1637719773,Whitney,-115.0842,36.0708,15.78,14.04,13.03,17.09,1011,24,1.34,170,20,4.0600000000000005,"[-125,-115)","[35,40)","[0,40)",High,Low,Very Low,South
5550368,1637719773,Wasco,-119.341,35.5941,13.15,12.37,11.22,16.18,1016,71,0,0,1,4.959999999999999,"[-125,-115)","[35,40)","[60,80)",High,Low,Very Low,North
5378870,1637719773,Oildale,-119.0195,35.4197,14.06,13.14,10.93,16.04,1014,62,3.09,350,1,5.109999999999999,"[-125,-115)","[35,40)","[60,80)",High,Low,Low,North
5397664,1637719773,South Lake Tahoe,-119.9844,38.9332,2.85,0.8,-4.01,4.94,1019,47,2.06,190,1,8.95,"[-125,-115)","[35,40)","[40,60)",Low,Low,Very Low,South
5501344,1637719773,Carson City,-119.7674,39.1638,6.13,3.77,-0.91,8.05,1019,38,3.13,331,1,8.96,"[-125,-115)","[35,40)","[0,40)",Low,Low,Low,North
5325738,1637719773,Bakersfield,-119.0187,35.3733,14.32,13.43,11.82,16.18,1014,62,1.34,321,1,4.359999999999999,"[-125,-115)","[35,40)","[60,80)",High,Low,Very Low,North
5394842,1637719773,Shafter,-119.2718,35.5005,13.7,12.04,11.18,16.29,1015,35,2.06,331,67,5.109999999999999,"[-125,-115)","[35,40)","[0,40)",High,Low,Very Low,North
5364916,1637719773,Lamont,-118.9143,35.2597,14.83,13.99,11.82,16.68,1015,62,2.07,319,57,4.859999999999999,"[-125,-115)","[35,40)","[60,80)",High,Low,Very Low,North
5504003,1637719773,Fernley,-119.2518,39.608,6.28,4.28,4.73,9.06,1020,36,2.68,278,7,4.33,"[-125,-115)","[35,40)","[0,40)",Low,High,Very Low,West
5324903,1637719773,Arvin,-118.8284,35.2091,14.91,13.61,13.07,19.56,1015,44,1.46,300,67,6.489999999999998,"[-125,-115)","[35,40)","[40,60)",High,Low,Very Low,West
5512862,1637719773,Sparks,-119.7527,39.5349,6.04,4.08,2.14,8.56,1019,40,2.57,350,20,6.42,"[-125,-115)","[35,40)","[40,60)",Low,Low,Very Low,North
5511077,1637719773,Reno,-119.8138,39.5296,5.8,5.07,-0.57,8.39,1019,40,1.34,15,20,8.96,"[-125,-115)","[35,40)","[40,60)",Low,Low,Very Low,North
5513307,1637719773,Sun Valley,-119.776,39.5963,5.35,5.35,1.54,7.96,1020,40,0.45,51,20,6.42,"[-125,-115)","[35,40)","[40,60)",Low,High,Very Low,East
5512827,1637719773,Spanish Springs,-119.7074,39.6491,5.7,5.7,1.93,8.36,1020,38,0.45,40,1,6.43,"[-125,-115)","[35,40)","[0,40)",Low,High,Very Low,North
5536630,1637719773,Cedar City,-113.0619,37.6775,6.85,5.47,5.66,7.44,1014,31,2.06,200,1,1.7800000000000002,"[-115,-105)","[35,40)","[0,40)",Low,Low,Very Low,South
5549222,1637719773,Washington,-113.5083,37.1305,11.88,9.91,11.18,13.93,1014,30,0.45,339,1,2.75,"[-115,-105)","[35,40)","[0,40)",High,Low,Very Low,North
5546220,1637719773,Saint George,-113.5841,37.1041,12,10.04,11.33,14.08,1014,30,0.45,339,1,2.75,"[-115,-105)","[35,40)","[0,40)",High,Low,Very Low,North
5508180,1637719773,Mesquite,-114.0672,36.8055,13.53,11.62,11.32,16.27,1011,26,0.67,149,11,4.949999999999999,"[-115,-105)","[35,40)","[0,40)",High,Low,Very Low,South
5294810,1637719773,Flagstaff,-111.6513,35.1981,5.33,3.98,3.71,7.29,956,89,1.79,277,90,3.58,"[-115,-105)","[35,40)","[80,100)",Low,Very Low,Very Low,West
5500539,1637719773,Boulder City,-114.8325,35.9786,14.43,12.45,12.38,15.96,1012,20,3.09,20,1,3.58,"[-115,-105)","[35,40)","[0,40)",High,Low,Low,North
5505411,1637719773,Henderson,-114.9819,36.0397,15.94,14.19,13.23,17.29,1012,23,3.09,20,1,4.059999999999999,"[-115,-105)","[35,40)","[0,40)",High,Low,Low,North
5301067,1637719773,Kingman,-114.053,35.1894,13.42,11.97,10.72,16.61,1013,44,5.66,210,20,5.889999999999999,"[-115,-105)","[35,40)","[40,60)",High,Low,Low,South
5287565,1637719773,Bullhead City,-114.5683,35.1478,17.66,16.08,16.17,20.34,997,23,2.57,110,1,4.169999999999998,"[-115,-105)","[35,40)","[0,40)",Very High,Very Low,Very Low,East
5420241,1637719773,Durango,-107.8801,37.2753,3.04,1.66,0.74,7.47,1016,91,1.54,70,90,6.7299999999999995,"[-115,-105)","[35,40)","[80,100)",Low,Low,Very Low,East
5467328,1637719773,Farmington,-108.2187,36.7281,5.05,3.37,4.66,5.38,1017,93,2.06,60,90,0.7199999999999998,"[-115,-105)","[35,40)","[80,100)",Low,Low,Very Low,East
5431710,1637719773,Montrose,-107.8762,38.4783,6.03,3.68,5.23,6.9,1016,61,3.09,260,90,1.67,"[-115,-105)","[35,40)","[60,80)",Low,Low,Low,West
5417258,1637719773,Clifton,-108.449,39.0919,3.38,3.38,1.23,9.38,1015,57,0,0,1,8.15,"[-115,-105)","[35,40)","[40,60)",Low,Low,Very Low,North
5423573,1637719773,Grand Junction,-108.5507,39.0639,3.08,3.08,1.49,9.63,1015,58,0,0,1,8.14,"[-115,-105)","[35,40)","[40,60)",Low,Low,Very Low,North
5416005,1637719773,Canon City,-105.2424,38.441,11.82,9.84,6.91,15.51,1008,30,5.66,290,1,8.6,"[-115,-105)","[35,40)","[0,40)",High,Very Low,Low,West
5490263,1637719773,Santa Fe,-105.9378,35.687,6.44,6.44,4.88,9.21,1015,39,0.45,28,90,4.330000000000001,"[-115,-105)","[35,40)","[0,40)",Low,Low,Very Low,North
5468773,1637719773,Gallup,-108.7426,35.5281,8.27,8.27,7.42,8.91,1020,62,0.89,283,90,1.4900000000000002,"[-115,-105)","[35,40)","[60,80)",High,High,Very Low,West
7839240,1637719775,Enchanted Hills,-106.593,35.3368,9.44,8.04,8.01,12.56,951,34,2.68,225,83,4.550000000000001,"[-115,-105)","[35,40)","[0,40)",High,Very Low,Very Low,West
5487811,1637719773,Rio Rancho,-106.6645,35.2334,9.49,9.25,8.06,11.8,1016,35,1.34,329,75,3.74,"[-115,-105)","[35,40)","[0,40)",High,Low,Very Low,North
5454711,1637719773,Albuquerque,-106.6511,35.0845,10.13,8.14,8.69,12.43,1018,36,1.54,120,75,3.74,"[-115,-105)","[35,40)","[0,40)",High,Low,Very Low,East
5492450,1637719773,South Valley,-106.6781,35.0101,10.17,8.16,8.75,12.5,1017,35,1.54,120,75,3.75,"[-115,-105)","[35,40)","[0,40)",High,Low,Very Low,East
5427207,1637719773,Ken Caryl,-105.1169,39.5773,12.01,9.87,5.72,15.53,1005,23,0.45,270,98,9.809999999999999,"[-115,-105)","[35,40)","[0,40)",High,Very Low,Very Low,West
5417657,1637719773,Columbine,-105.0694,39.5878,12.54,10.45,6.23,16.04,1005,23,0.45,270,75,9.809999999999999,"[-115,-105)","[35,40)","[0,40)",High,Very Low,Very Low,West
5429032,1637719773,Littleton,-105.0166,39.6133,12.92,10.87,6.59,16.4,1005,23,0.45,270,75,9.809999999999999,"[-115,-105)","[35,40)","[0,40)",High,Very Low,Very Low,West
5423294,1637719773,Golden,-105.2211,39.7555,12.33,10.27,5.9,15.71,985,25,4.47,269,75,9.81,"[-115,-105)","[35,40)","[0,40)",High,Very Low,Low,West
5427946,1637719773,Lakewood,-105.0814,39.7047,12.77,10.73,6.27,16.07,986,24,1.79,276,100,9.8,"[-115,-105)","[35,40)","[0,40)",High,Very Low,Very Low,West
5443948,1637719773,Wheat Ridge,-105.0772,39.7661,12.99,10.95,6.39,16.2,989,23,2.68,264,75,9.809999999999999,"[-115,-105)","[35,40)","[0,40)",High,Very Low,Very Low,West
5412199,1637719773,Arvada,-105.0875,39.8028,13.25,11.23,6.63,16.44,990,23,2.68,264,75,9.810000000000002,"[-115,-105)","[35,40)","[0,40)",High,Very Low,Very Low,West
5443910,1637719773,Westminster,-105.0372,39.8367,13.19,11.17,6.51,16.31,984,23,1.79,293,75,9.799999999999999,"[-115,-105)","[35,40)","[0,40)",High,Very Low,Very Low,West
5438567,1637719773,Sherrelwood,-105.0014,39.8378,13.41,11.38,6.71,16.52,1004,22,4.02,278,75,9.809999999999999,"[-115,-105)","[35,40)","[0,40)",High,Very Low,Low,West
5415035,1637719635,Broomfield,-105.0866,39.9205,13.21,11.16,6.5,16.31,1006,22,7.72,250,75,9.809999999999999,"[-115,-105)","[35,40)","[0,40)",High,Very Low,High,West
5429522,1637719773,Louisville,-105.1319,39.9778,13.25,11.21,6.59,16.4,1006,22,1.34,255,75,9.809999999999999,"[-115,-105)","[35,40)","[0,40)",High,Very Low,Very Low,West
5427771,1637719773,Lafayette,-105.0897,39.9936,13.6,11.56,6.86,16.67,1006,21,2.68,188,1,9.810000000000002,"[-115,-105)","[35,40)","[0,40)",High,Very Low,Very Low,South
5445820,1637719773,Liberal,-100.921,37.0431,16.16,14.64,16.08,17.57,1005,31,8.23,190,1,1.490000000000002,"[-105,-95)","[35,40)","[0,40)",Very High,Very Low,High,South
5445439,1637719773,Garden City,-100.8727,37.9717,13.08,11.12,9.95,16.14,1003,26,3.6,150,1,6.190000000000001,"[-105,-95)","[35,40)","[0,40)",High,Very Low,Low,South
5435464,1637719773,Pueblo,-104.6091,38.2545,14.91,12.93,10.96,16.84,1005,18,7.72,320,1,5.879999999999999,"[-105,-95)","[35,40)","[0,40)",High,Very Low,High,North
5435477,1637719773,Pueblo West,-104.7227,38.35,13.57,11.64,7.48,16.08,1003,25,5.93,283,68,8.599999999999998,"[-105,-95)","[35,40)","[0,40)",High,Very Low,Low,West
5445298,1637719773,Dodge City,-100.0171,37.7528,16.19,14.75,13.73,17.58,1004,34,4.92,158,1,3.849999999999998,"[-105,-95)","[35,40)","[0,40)",Very High,Very Low,Low,South
5422191,1637719773,Fountain,-104.7008,38.6822,12.48,10.65,6.52,15.12,1008,33,3.09,300,75,8.6,"[-105,-95)","[35,40)","[0,40)",High,Very Low,Low,West
7262349,1637719775,Security-Widefield,-104.7144,38.7473,11.97,10.06,5.99,14.59,1007,32,1.34,255,75,8.6,"[-105,-95)","[35,40)","[0,40)",High,Very Low,Very Low,West
5417041,1637719773,Cimarron Hills,-104.6989,38.8586,10.73,8.69,4.73,13.33,1009,32,3.09,300,75,8.6,"[-105,-95)","[35,40)","[0,40)",High,Very Low,Low,West
5417598,1637719773,Colorado Springs,-104.8214,38.8339,11.43,9.57,5.61,14.21,1005,36,0.45,350,75,8.600000000000001,"[-105,-95)","[35,40)","[0,40)",High,Very Low,Very Low,North
5527953,1637719773,Pampa,-100.9599,35.5362,16.52,15.25,15.3,18.53,1009,39,7.2,190,1,3.2300000000000004,"[-105,-95)","[35,40)","[0,40)",Very High,Very Low,High,South
5516233,1637719773,Amarillo,-101.8313,35.222,16.04,14.69,14.64,17.8,1009,38,3.13,239,1,3.16,"[-105,-95)","[35,40)","[0,40)",Very High,Very Low,Low,West
5416329,1637719773,Castle Rock,-104.8561,39.3722,10.76,8.6,5.13,13.73,1000,27,2.24,220,91,8.600000000000001,"[-105,-95)","[35,40)","[0,40)",High,Very Low,Very Low,South
5434006,1637719773,Parker,-104.7614,39.5186,11.55,9.36,8.2,13.65,1006,23,0.45,58,75,5.450000000000001,"[-105,-95)","[35,40)","[0,40)",High,Very Low,Very Low,East
5416541,1637719773,Centennial,-104.8769,39.5792,11.81,9.62,8.25,15.43,995,22,2.06,210,75,7.18,"[-105,-95)","[35,40)","[0,40)",High,Very Low,Very Low,South
5416357,1637719773,Castlewood,-104.9011,39.5847,12.05,9.91,8.46,15.64,1004,23,2.06,210,75,7.18,"[-105,-95)","[35,40)","[0,40)",High,Very Low,Very Low,South
5425043,1637719773,Highlands Ranch,-104.9694,39.5539,12.15,10.02,8.55,15.73,1004,23,0.45,272,75,7.18,"[-105,-95)","[35,40)","[0,40)",High,Very Low,Very Low,West
5439752,1637719773,Southglenn,-104.9528,39.5872,12.43,10.33,8.79,15.97,1004,23,0.45,254,75,7.1800000000000015,"[-105,-95)","[35,40)","[0,40)",High,Very Low,Very Low,West
5412347,1637719773,Aurora,-104.8319,39.7294,12.9,10.79,9.1,16.28,989,21,0.45,169,75,7.1800000000000015,"[-105,-95)","[35,40)","[0,40)",High,Very Low,Very Low,South
5421250,1637719773,Englewood,-104.9878,39.6478,12.92,10.84,6.54,16.34,1004,22,0.45,254,75,9.8,"[-105,-95)","[35,40)","[0,40)",High,Very Low,Very Low,West
5419384,1637719773,Denver,-104.9847,39.7392,13.26,11.22,6.73,16.53,1003,22,0.45,276,100,9.8,"[-105,-95)","[35,40)","[0,40)",High,Very Low,Very Low,West
5417737,1637719773,Commerce City,-104.9339,39.8083,13.6,11.56,9.59,16.77,1005,21,0.45,276,75,7.18,"[-105,-95)","[35,40)","[0,40)",High,Very Low,Very Low,West
5441492,1637719773,Thornton,-104.9719,39.868,13.37,11.34,6.64,16.45,1004,22,4.02,278,75,9.809999999999999,"[-105,-95)","[35,40)","[0,40)",High,Very Low,Low,West
5414941,1637719773,Brighton,-104.8205,39.9853,14.2,12.2,8.18,17.12,1003,20,6.26,230,75,8.940000000000001,"[-105,-95)","[35,40)","[0,40)",High,Very Low,High,West
5433124,1637719773,Northglenn,-104.9872,39.8855,13.33,11.29,6.58,16.38,1004,22,4.02,278,75,9.799999999999999,"[-105,-95)","[35,40)","[0,40)",High,Very Low,Low,West
4270356,1637719770,Derby,-97.2689,37.5456,14.65,13.11,13.88,15.73,1008,36,1.34,165,1,1.8499999999999996,"[-105,-95)","[35,40)","[0,40)",High,Very Low,Very Low,South
4281730,1637719770,Wichita,-97.3375,37.6922,14.65,13.11,13.85,15.7,1009,36,3.13,202,40,1.8499999999999996,"[-105,-95)","[35,40)","[0,40)",High,Very Low,Low,South
4276248,1637719770,Newton,-97.345,38.0467,14.52,12.99,13.57,15.84,1008,37,4.47,174,1,2.2699999999999996,"[-105,-95)","[35,40)","[0,40)",High,Very Low,Low,South
4273299,1637719770,Hutchinson,-97.9298,38.0608,14.67,13.18,13.51,15.66,1006,38,3.13,204,65,2.1500000000000004,"[-105,-95)","[35,40)","[0,40)",High,Very Low,Low,South
4548267,1637719771,Ponca City,-97.0856,36.707,15.75,14.22,14.41,16.98,1010,32,4.92,318,1,2.5700000000000003,"[-105,-95)","[35,40)","[0,40)",High,Low,Low,North
4535961,1637719771,Enid,-97.8784,36.3956,15.22,13.63,14.57,17.3,1009,32,3.58,172,1,2.7300000000000004,"[-105,-95)","[35,40)","[0,40)",High,Very Low,Low,South
4272340,1637719770,Great Bend,-98.7648,38.3645,15.5,13.97,14.11,16.07,1005,33,4.02,318,1,1.9600000000000009,"[-105,-95)","[35,40)","[0,40)",High,Very Low,Low,North
4278890,1637719770,Salina,-97.6114,38.8403,16,14.57,15.57,16.64,1005,35,4.47,112,1,1.0700000000000003,"[-105,-95)","[35,40)","[0,40)",Very High,Very Low,Low,East
4271086,1637719770,Emporia,-96.1817,38.4039,12.11,10.6,12.11,13.62,1009,47,7.2,170,1,1.5099999999999998,"[-105,-95)","[35,40)","[40,60)",High,Very Low,High,South
4529987,1637719771,Bartlesville,-95.9808,36.7473,14.56,13.3,13.34,16.31,1011,47,7.2,170,1,2.969999999999999,"[-105,-95)","[35,40)","[40,60)",High,Low,High,South
4552215,1637719771,Stillwater,-97.0584,36.1156,16.16,14.69,15.02,17.23,1011,33,4.02,138,1,2.210000000000001,"[-105,-95)","[35,40)","[0,40)",Very High,Low,Low,South
4273680,1637719770,Junction City,-96.8314,39.0286,14.61,13.17,13.3,16.89,1008,40,2.68,178,1,3.59,"[-105,-95)","[35,40)","[40,60)",High,Very Low,Very Low,South
4550659,1637719771,Sand Springs,-96.1089,36.1398,14.6,13.26,13.35,15.86,1014,44,5.14,170,1,2.51,"[-105,-95)","[35,40)","[40,60)",High,Low,Low,South
4547407,1637719771,Owasso,-95.8547,36.2695,14.84,13.82,13.53,16.04,1013,55,2.68,169,40,2.51,"[-105,-95)","[35,40)","[40,60)",High,Low,Very Low,South
4553433,1637719771,Tulsa,-95.9928,36.154,14.56,13.25,13.32,15.83,1013,45,0.45,157,40,2.51,"[-105,-95)","[35,40)","[40,60)",High,Low,Very Low,South
4274994,1637719770,Manhattan,-96.5717,39.1836,14.46,13.06,12.9,16.11,1007,42,4.02,150,1,3.209999999999999,"[-105,-95)","[35,40)","[40,60)",High,Very Low,Low,South
4535740,1637719771,Edmond,-97.4781,35.6528,15.65,14.13,14.17,16.58,1007,33,1.34,146,79,2.4099999999999984,"[-105,-95)","[35,40)","[0,40)",High,Very Low,Very Low,South
4550881,1637719771,Sapulpa,-96.1142,35.9987,14.44,13.14,13.7,15.84,1014,46,5.14,170,1,2.1400000000000006,"[-105,-95)","[35,40)","[40,60)",High,Low,Low,South
4533580,1637719771,Claremore,-95.6161,36.3126,14.8,13.85,13.53,16.07,1012,58,4.02,226,1,2.540000000000001,"[-105,-95)","[35,40)","[40,60)",High,Low,Low,West
4539615,1637719771,Jenks,-95.9683,36.0229,14.63,13.32,13.17,16.03,1013,45,5.14,170,1,2.860000000000001,"[-105,-95)","[35,40)","[40,60)",High,Low,Low,South
4530372,1637719771,Bethany,-97.6323,35.5187,15.38,13.84,13.95,16.36,1011,33,11.83,170,1,2.41,"[-105,-95)","[35,40)","[0,40)",High,Low,Very High,South
4272782,1637719770,Hays,-99.3268,38.8792,14.85,13.2,14.03,14.96,1003,31,7.2,180,1,0.9300000000000015,"[-105,-95)","[35,40)","[0,40)",High,Very Low,High,South
4531405,1637719771,Broken Arrow,-95.7908,36.0526,14.39,13.06,12.92,15.78,1013,45,2.24,144,1,2.8599999999999994,"[-105,-95)","[35,40)","[40,60)",High,Low,Very Low,South
4535783,1637719771,El Reno,-97.955,35.5323,15.28,13.65,13.86,16.48,1012,30,11.32,170,1,2.620000000000001,"[-105,-95)","[35,40)","[0,40)",High,Low,Very High,South
4556165,1637719771,Yukon,-97.7625,35.5067,15.48,13.95,14.64,16.41,1010,33,3.58,264,1,1.7699999999999996,"[-105,-95)","[35,40)","[0,40)",High,Low,Low,West
4530801,1637719771,Bixby,-95.8833,35.942,14.62,13.29,13.21,16.06,1014,44,5.14,170,1,2.849999999999998,"[-105,-95)","[35,40)","[40,60)",High,Low,Low,South
4544349,1637719771,Oklahoma City,-97.5164,35.4676,15.55,14.02,14.18,16.59,1003,33,5.36,179,40,2.41,"[-105,-95)","[35,40)","[0,40)",High,Very Low,Low,South
4542765,1637719771,Midwest City,-97.3967,35.4495,15.38,13.84,14.06,16.48,1011,33,2.24,221,1,2.42,"[-105,-95)","[35,40)","[0,40)",High,Low,Very Low,South
4534934,1637719771,Del City,-97.4409,35.442,15.49,13.96,14.16,16.57,1011,33,4.02,216,1,2.41,"[-105,-95)","[35,40)","[0,40)",High,Low,Low,South
4280539,1637719770,Topeka,-95.678,39.0483,13.57,12.31,12.82,14.47,1009,51,1.34,140,1,1.6500000000000004,"[-105,-95)","[35,40)","[40,60)",High,Very Low,Very Low,South
4543352,1637719771,Mustang,-97.7245,35.3842,15.28,13.73,14.51,16.27,1011,33,4.47,143,1,1.7599999999999998,"[-105,-95)","[35,40)","[0,40)",High,Low,Low,South
4542975,1637719771,Moore,-97.4867,35.3395,15.31,13.76,14.09,16.5,1012,33,3.13,132,1,2.41,"[-105,-95)","[35,40)","[0,40)",High,Low,Low,East
4551177,1637719771,Shawnee,-96.9253,35.3273,14.93,13.44,14.01,16.86,1016,37,6.69,170,1,2.8499999999999996,"[-105,-95)","[35,40)","[0,40)",High,Low,High,South
4543762,1637719771,Norman,-97.4395,35.2226,15.37,13.82,14.24,16.65,1012,33,8.75,150,1,2.4099999999999984,"[-105,-95)","[35,40)","[0,40)",High,Low,High,South
4274277,1637719770,Lawrence,-95.2353,38.9717,13.73,12.33,11.96,14.92,1010,45,5.66,160,1,2.959999999999999,"[-105,-95)","[35,40)","[40,60)",High,Low,Low,South
4543338,1637719771,Muskogee,-95.3697,35.7479,13.47,12.26,11.94,16.08,1014,53,3.58,143,1,4.139999999999999,"[-105,-95)","[35,40)","[40,60)",High,Low,Low,South
4533029,1637719771,Chickasha,-97.9364,35.0526,15.85,14.3,15,16.39,1012,31,7.2,160,1,1.3900000000000006,"[-105,-95)","[35,40)","[0,40)",High,Low,High,South
7259265,1637719775,Fort Leonard Wood,-92.1572,37.7057,8.33,4.88,6.2,10.23,1016,47,6.71,160,1,4.03,"[-95,-85)","[35,40)","[40,60)",High,Low,High,South
4409896,1637719770,Springfield,-93.2982,37.2153,9.95,7.74,7.44,12.04,1015,57,4.47,113,1,4.599999999999999,"[-95,-85)","[35,40)","[40,60)",High,Low,Low,East
4406282,1637719771,Rolla,-91.7713,37.9514,7.49,5.14,6.19,8.81,1016,47,3.58,150,1,2.62,"[-95,-85)","[35,40)","[40,60)",Low,Low,Low,South
4402245,1637719770,Ozark,-93.206,37.0209,9.89,9.89,6.85,11.36,1015,59,0.89,70,0,4.51,"[-95,-85)","[35,40)","[40,60)",High,Low,Very Low,East
4400648,1637719770,Nixa,-93.2944,37.0434,9.82,8.22,6.9,11.3,1013,59,3.13,153,0,4.4,"[-95,-85)","[35,40)","[40,60)",High,Low,Low,South
4392388,1637719770,Jefferson City,-92.1735,38.5767,9.81,7.76,8.23,11.27,1015,40,4.02,140,1,3.039999999999999,"[-95,-85)","[35,40)","[40,60)",High,Low,Low,South
4408000,1637719770,Sedalia,-93.2283,38.7045,11.66,10.13,9.71,12.09,1013,48,7.72,160,1,2.379999999999999,"[-95,-85)","[35,40)","[40,60)",High,Low,High,South
4381982,1637719771,Columbia,-92.3341,38.9517,10.05,8.7,8.52,11,1014,61,4.92,144,1,2.4800000000000004,"[-95,-85)","[35,40)","[60,80)",High,Low,Low,South
4413595,1637719770,Warrensburg,-93.7361,38.7628,11.97,10.48,10.7,13.36,1012,48,5.66,150,1,2.66,"[-95,-85)","[35,40)","[40,60)",High,Low,Low,South
4392768,1637719770,Joplin,-94.5133,37.0842,12.65,11.22,11.36,13.77,1013,48,1.34,222,1,2.41,"[-95,-85)","[35,40)","[40,60)",High,Low,Very Low,South
4386289,1637719770,Farmington,-90.4218,37.7809,4.8,1.54,2.93,5.48,1020,52,4.12,180,1,2.5500000000000003,"[-95,-85)","[35,40)","[40,60)",Low,High,Low,South
4128894,1637719770,Rogers,-94.1185,36.332,10.66,9.35,8.62,12.07,1016,60,5.36,150,1,3.450000000000001,"[-95,-85)","[35,40)","[60,80)",High,Low,Low,South
4101115,1637719770,Bella Vista,-94.2733,36.4815,11.22,9.96,9.83,12.46,1017,60,0.45,209,1,2.630000000000001,"[-95,-85)","[35,40)","[60,80)",High,Low,Very Low,South
4101114,1637719770,Bella Vista,-94.2316,36.4295,11.33,10.09,9.99,12.61,1016,60,0.45,116,1,2.619999999999999,"[-95,-85)","[35,40)","[60,80)",High,Low,Very Low,East
4277241,1637719770,Pittsburg,-94.705,37.4109,13.24,11.95,11.94,13.89,1012,51,4.02,137,1,1.950000000000001,"[-95,-85)","[35,40)","[40,60)",High,Low,Low,South
4101260,1637719770,Bentonville,-94.2088,36.3728,10.95,9.64,9.6,12.23,1016,59,5.81,150,1,2.630000000000001,"[-95,-85)","[35,40)","[40,60)",High,Low,Low,South
4414749,1637719770,Wildwood,-90.6629,38.5828,6.16,6.16,3.88,7.48,1018,46,0.45,117,1,3.6000000000000005,"[-95,-85)","[35,40)","[40,60)",Low,Low,Very Low,East
4404233,1637719770,Poplar Bluff,-90.3929,36.757,4.35,3.15,3.94,5.85,1021,70,1.54,140,1,1.9099999999999997,"[-95,-85)","[35,40)","[60,80)",Low,High,Very Low,South
4414001,1637719771,Wentzville,-90.8529,38.8114,6.95,6.95,4.57,8.25,1017,46,0.89,174,0,3.6799999999999997,"[-95,-85)","[35,40)","[40,60)",Low,Low,Very Low,South
4132093,1637719770,Springdale,-94.1288,36.1867,10.86,9.57,8.73,12.01,1016,60,3.58,150,1,3.2799999999999994,"[-95,-85)","[35,40)","[60,80)",High,Low,Low,South
4375663,1637719770,Ballwin,-90.5462,38.5951,6.23,6.23,4.14,7.75,1018,46,0.45,117,1,3.6100000000000003,"[-95,-85)","[35,40)","[40,60)",Low,Low,Very Low,East
4381072,1637719770,Chesterfield,-90.5771,38.6631,6.68,4.75,4.41,8.01,1018,43,2.68,160,1,3.5999999999999996,"[-95,-85)","[35,40)","[40,60)",Low,Low,Very Low,South
4396915,1637719770,Manchester,-90.5093,38.597,6.33,6.33,4.3,7.91,1019,47,0.89,198,1,3.6100000000000003,"[-95,-85)","[35,40)","[40,60)",Low,Low,Very Low,South
4375087,1637719770,Arnold,-90.3776,38.4328,5.94,5.94,4.17,7.88,1019,51,0.45,162,0,3.71,"[-95,-85)","[35,40)","[40,60)",Low,Low,Very Low,South
4401242,1637719770,O'Fallon,-90.6999,38.8106,6.88,6.88,4.38,8.44,1017,43,0.89,180,1,4.06,"[-95,-85)","[35,40)","[40,60)",Low,Low,Very Low,South
4110486,1637719770,Fayetteville,-94.1574,36.0626,10.78,9.43,8.35,11.85,1016,58,1.79,157,1,3.5,"[-95,-85)","[35,40)","[40,60)",High,Low,Very Low,South
4407237,1637719770,City of Saint Peters,-90.6265,38.8003,6.93,6.35,4.56,8.14,1017,43,1.34,159,1,3.580000000000001,"[-95,-85)","[35,40)","[40,60)",Low,Low,Very Low,South
4393739,1637719770,Kirkwood,-90.4068,38.5834,5.94,5.94,4.01,7.72,1018,50,0.89,198,1,3.71,"[-95,-85)","[35,40)","[40,60)",Low,Low,Very Low,South
4382072,1637719770,Concord,-90.3573,38.5245,5.87,5.87,4.08,7.79,1019,52,0.45,97,1,3.71,"[-95,-85)","[35,40)","[40,60)",Low,Low,Very Low,East
4401618,1637719770,Oakville,-90.3046,38.4701,5.8,4.52,3.61,7.84,1019,53,1.79,67,1,4.23,"[-95,-85)","[35,40)","[40,60)",Low,Low,Very Low,East
4397962,1637719770,Mehlville,-90.3229,38.5084,5.88,5.16,3.63,7.86,1018,52,1.34,180,1,4.23,"[-95,-85)","[35,40)","[40,60)",Low,Low,Very Low,South
4374513,1637719770,Affton,-90.3332,38.5506,5.86,5.86,3.58,7.81,1019,52,0.45,148,1,4.2299999999999995,"[-95,-85)","[35,40)","[40,60)",Low,Low,Very Low,South
4382837,1637719770,Creve Coeur,-90.4226,38.6609,6.1,4.06,4.09,8.27,1018,48,2.68,141,1,4.18,"[-95,-85)","[35,40)","[40,60)",Low,Low,Very Low,South
4413872,1637719771,Webster Groves,-90.3573,38.5925,6.04,6.04,4.21,7.92,1019,50,0.45,148,1,3.71,"[-95,-85)","[35,40)","[40,60)",Low,Low,Very Low,South
4405180,1637719770,Raymore,-94.4527,38.8019,12.45,11.16,10.94,14.38,1012,54,1.79,155,1,3.4400000000000013,"[-95,-85)","[35,40)","[40,60)",High,Low,Very Low,South
4397340,1637719770,Maryland Heights,-90.4298,38.7131,6.3,4.66,4.25,8.44,1018,47,2.24,186,1,4.1899999999999995,"[-95,-85)","[35,40)","[40,60)",Low,Low,Very Low,South
4394905,1637719770,Lemay,-90.2793,38.5334,5.99,5.99,3.83,8.05,1018,53,0.45,148,1,4.220000000000001,"[-95,-85)","[35,40)","[40,60)",Low,Low,Very Low,South
4406831,1637719770,Saint Charles,-90.4812,38.7839,6.61,4.67,4.52,8.13,1019,44,2.68,281,1,3.610000000000001,"[-95,-85)","[35,40)","[40,60)",Low,Low,Very Low,West
4394870,1637719770,Lee's Summit,-94.3822,38.9108,12.63,11.33,11.06,14.57,1011,53,0.45,195,1,3.51,"[-95,-85)","[35,40)","[40,60)",High,Low,Very Low,South
4381478,1637719770,Clayton,-90.3237,38.6426,5.96,5.96,4.17,7.88,1018,50,0.45,148,1,3.71,"[-95,-85)","[35,40)","[40,60)",Low,Low,Very Low,South
4377664,1637719770,Blue Springs,-94.2816,39.0169,12.8,11.52,11.14,14.65,1011,53,1.79,158,1,3.51,"[-95,-85)","[35,40)","[40,60)",High,Low,Very Low,South
4402178,1637719770,Overland,-90.3623,38.7012,5.94,3,4.05,8.23,1018,49,4.02,147,1,4.180000000000001,"[-95,-85)","[35,40)","[40,60)",Low,Low,Low,South
4376482,1637719770,Belton,-94.5319,38.812,12.56,11.26,11.04,14.42,1013,53,1.79,155,0,3.380000000000001,"[-95,-85)","[35,40)","[40,60)",High,Low,Very Low,South
4412697,1637719771,University City,-90.3093,38.6559,6.01,6.01,3.73,7.96,1018,50,0.89,158,1,4.23,"[-95,-85)","[35,40)","[40,60)",Low,Low,Very Low,South
4131116,1637719770,Siloam Springs,-94.5405,36.1881,11.53,10.15,9.12,12.51,1016,54,5.14,160,1,3.3900000000000006,"[-95,-85)","[35,40)","[40,60)",High,Low,Low,South
4389967,1637719770,Hazelwood,-90.3709,38.7714,6.12,3.46,4.19,8.38,1017,46,3.6,150,1,4.19,"[-95,-85)","[35,40)","[40,60)",Low,Low,Low,South
4234969,1637719770,Cahokia,-90.1901,38.5709,5.96,2.97,3.97,8.2,1019,53,4.12,160,1,4.229999999999999,"[-95,-85)","[35,40)","[40,60)",Low,Low,Low,South
4388460,1637719770,Grandview,-94.533,38.8858,12.72,11.43,11.1,14.48,1012,53,0.89,198,1,3.380000000000001,"[-95,-85)","[35,40)","[40,60)",High,Low,Very Low,South
4386387,1637719770,Ferguson,-90.3054,38.7442,6.05,5.35,4.28,7.99,1017,49,1.34,112,1,3.71,"[-95,-85)","[35,40)","[40,60)",Low,Low,Very Low,East
4407066,1637719770,St Louis,-90.1979,38.6273,5.89,5.89,3.86,8.09,1020,53,0.89,158,1,4.23,"[-95,-85)","[35,40)","[40,60)",Low,High,Very Low,South
4386802,1637719770,Florissant,-90.3226,38.7892,6,5.3,3.73,8.38,1017,47,1.34,112,1,4.65,"[-95,-85)","[35,40)","[40,60)",Low,Low,Very Low,East
4125388,1637719770,Paragould,-90.4973,36.0584,5.14,2.15,3.94,6.91,1022,74,3.8,168,0,2.97,"[-95,-85)","[35,40)","[60,80)",Low,High,Low,South
4405188,1637719770,Raytown,-94.4636,39.0086,12.93,11.61,11.1,14.61,1011,51,0.89,211,1,3.51,"[-95,-85)","[35,40)","[40,60)",High,Low,Very Low,South
4385018,1637719770,"Independence, Mo",-94.3552,39.0956,13.34,12.11,11.47,14.98,1011,53,0.89,118,1,3.51,"[-95,-85)","[35,40)","[40,60)",High,Low,Very Low,East
4237579,1637719770,East Saint Louis,-90.1509,38.6245,5.87,2.86,3.95,8.18,1019,54,4.12,160,1,4.2299999999999995,"[-95,-85)","[35,40)","[40,60)",Low,Low,Low,South
4391812,1637719770,Independence,-94.4155,39.0911,12.99,11.62,11.17,14.55,1010,49,0.89,211,1,3.380000000000001,"[-95,-85)","[35,40)","[40,60)",High,Low,Very Low,South
4116834,1637719770,Jonesboro,-90.7043,35.8423,6.37,5.18,4.9,6.87,1022,65,1.79,170,1,1.9699999999999998,"[-95,-85)","[35,40)","[60,80)",Low,High,Very Low,South
4239714,1637719770,Granite City,-90.1487,38.7014,5.86,5.86,3.94,8.17,1019,53,0.89,153,1,4.23,"[-95,-85)","[35,40)","[40,60)",Low,Low,Very Low,South
4409591,1637719771,Spanish Lake,-90.2159,38.7878,5.77,5.04,3.7,7.93,1017,51,1.34,112,1,4.2299999999999995,"[-95,-85)","[35,40)","[40,60)",Low,Low,Very Low,East
4274317,1637719770,Leawood,-94.6169,38.9667,13.18,11.86,11.37,14.75,1005,50,2.24,241,1,3.380000000000001,"[-95,-85)","[35,40)","[40,60)",High,Very Low,Very Low,West
4277718,1637719770,Prairie Village,-94.6336,38.9917,13.08,11.72,11.22,14.6,1005,49,2.24,241,1,3.379999999999999,"[-95,-85)","[35,40)","[40,60)",High,Very Low,Very Low,West
4276873,1637719770,Overland Park,-94.6708,38.9822,12.96,11.59,11.08,14.46,1005,49,1.34,176,1,3.380000000000001,"[-95,-85)","[35,40)","[40,60)",High,Very Low,Very Low,South
4274356,1637719770,Lenexa,-94.7336,38.9536,13.11,11.78,11.49,14.55,1005,50,3.13,130,1,3.0600000000000005,"[-95,-85)","[35,40)","[40,60)",High,Very Low,Low,East
4129397,1637719770,Russellville,-93.1338,35.2784,9.6,9.15,8.41,10.66,1019,62,1.54,0,1,2.25,"[-95,-85)","[35,40)","[60,80)",High,Low,Very Low,North
4393217,1637719770,Kansas City,-94.5786,39.0997,13.47,12.07,11.43,14.82,1010,46,5.81,170,1,3.3900000000000006,"[-95,-85)","[35,40)","[40,60)",High,Low,Low,South
4276614,1637719770,Olathe,-94.8191,38.8814,13.09,11.73,11.51,14.57,1010,49,2.68,180,1,3.0600000000000005,"[-95,-85)","[35,40)","[40,60)",High,Low,Very Low,South
4232679,1637719770,Alton,-90.1843,38.8906,5.71,1.73,3.83,8.01,1017,53,6.17,160,1,4.18,"[-95,-85)","[35,40)","[40,60)",Low,Low,High,South
4395052,1637719770,Liberty,-94.4191,39.2461,13.54,12.2,11.81,14.87,1015,48,2.24,180,1,3.0599999999999987,"[-95,-85)","[35,40)","[40,60)",High,Low,Very Low,South
4271935,1637719770,Gardner,-94.9272,38.8108,13.02,11.66,11.5,14.51,1010,49,6.17,170,1,3.01,"[-95,-85)","[35,40)","[40,60)",High,Low,High,South
4273837,1637719770,Kansas City,-94.6275,39.1142,13.62,12.21,11.53,14.92,1010,45,5.81,170,1,3.3900000000000006,"[-95,-85)","[35,40)","[40,60)",High,Low,Low,South
4251841,1637719770,Upper Alton,-90.1507,38.9114,5.56,4.24,3.77,7.95,1017,53,1.79,137,1,4.18,"[-95,-85)","[35,40)","[40,60)",Low,Low,Very Low,South
4279247,1637719770,Shawnee,-94.7202,39.0417,13.15,11.8,11.12,14.51,1005,49,2.68,143,1,3.3900000000000006,"[-95,-85)","[35,40)","[40,60)",High,Very Low,Very Low,South
4239509,1637719770,Godfrey,-90.1868,38.9556,5.48,1.44,3.62,7.8,1017,53,6.17,160,1,4.18,"[-95,-85)","[35,40)","[40,60)",Low,Low,High,South
4130430,1637719770,Searcy,-91.7363,35.2506,6.44,5.8,5.62,9.73,1021,68,1.34,170,1,4.11,"[-95,-85)","[35,40)","[60,80)",Low,High,Very Low,South
4387990,1637719770,Gladstone,-94.5547,39.2039,13.5,12.03,11.33,14.71,1013,43,0.89,135,1,3.380000000000001,"[-95,-85)","[35,40)","[40,60)",High,Low,Very Low,South
4389418,1637719770,Hannibal,-91.3585,39.7084,7.95,5.19,5.4,9.45,1015,34,4.63,160,1,4.049999999999999,"[-95,-85)","[35,40)","[0,40)",Low,Low,Low,South
4106458,1637719770,Conway,-92.4421,35.0887,8.72,8.72,5.88,10.14,1020,62,0,0,90,4.260000000000001,"[-95,-85)","[35,40)","[60,80)",High,High,Very Low,North
4552707,1637719771,Tahlequah,-94.97,35.9154,13.01,11.44,11.14,14.13,1016,41,4.12,160,1,2.99,"[-95,-85)","[35,40)","[40,60)",High,Low,Low,South
4134716,1637719770,Van Buren,-94.3483,35.4368,12.36,11.11,10.48,13.6,1019,56,0.89,157,1,3.119999999999999,"[-95,-85)","[35,40)","[40,60)",High,Low,Very Low,South
4247703,1637719770,Quincy,-91.4099,39.9356,7.71,7.71,5.25,9.2,1014,47,0.89,214,1,3.9499999999999993,"[-95,-85)","[35,40)","[40,60)",Low,Low,Very Low,South
4111410,1637719770,Fort Smith,-94.3986,35.3859,12.44,11.18,10.03,13.57,1018,55,1.79,93,1,3.540000000000001,"[-95,-85)","[35,40)","[40,60)",High,Low,Very Low,East
4274305,1637719770,Leavenworth,-94.9225,39.3111,14.23,12.91,11.92,14.97,1009,46,2.68,147,1,3.0500000000000007,"[-95,-85)","[35,40)","[40,60)",High,Very Low,Very Low,South
4111382,1637719770,Forrest City,-90.7898,35.0081,3.92,0.71,3.92,5.88,1023,49,3.71,168,0,1.96,"[-95,-85)","[35,40)","[40,60)",Low,High,Low,South
4241704,1637719770,Jacksonville,-90.229,39.7339,4.16,-0.24,1.66,5.23,1017,48,6.17,160,1,3.5700000000000003,"[-95,-85)","[35,40)","[40,60)",Low,Low,High,South
4407010,1637719770,Saint Joseph,-94.8466,39.7686,13.54,12.15,12.21,14.77,1009,46,8.23,180,1,2.5599999999999987,"[-95,-85)","[35,40)","[40,60)",High,Very Low,High,South
4135865,1637719770,West Memphis,-90.1845,35.1465,6.48,4.6,4,9.17,1022,70,2.57,170,1,5.17,"[-95,-85)","[35,40)","[60,80)",Low,High,Very Low,South
4641239,1637719771,Memphis,-90.049,35.1495,6.65,4.8,3.9,9.07,1022,53,2.57,150,1,5.17,"[-95,-85)","[35,40)","[40,60)",Low,High,Very Low,South
4645421,1637719771,New South Memphis,-90.0568,35.0868,6.69,4.85,3.9,9.06,1022,53,2.57,150,1,5.16,"[-95,-85)","[35,40)","[40,60)",Low,High,Very Low,South
4299670,1637719770,Madisonville,-87.4989,37.3281,2.24,-1.09,0.4,4.02,1024,55,3.36,151,0,3.6199999999999997,"[-95,-85)","[35,40)","[40,60)",Low,High,Low,South
4294494,1637719770,Henderson,-87.59,37.8362,2.77,-0.96,0.98,3.88,1019,58,4.12,140,1,2.9,"[-95,-85)","[35,40)","[40,60)",Low,Low,Low,South
4303436,1637719770,Owensboro,-87.1133,37.7742,2.51,-0.93,-0.95,3.9,1024,52,3.6,150,1,4.85,"[-95,-85)","[35,40)","[40,60)",Low,High,Low,South
4257227,1637719770,Evansville,-87.5558,37.9748,3.01,1.3,1.01,3.9,1023,54,1.79,156,1,2.8899999999999997,"[-95,-85)","[35,40)","[40,60)",Low,High,Very Low,South
4295251,1637719770,Hopkinsville,-87.4886,36.8656,2.89,-0.34,0.49,5.02,1025,69,3.41,148,0,4.529999999999999,"[-95,-85)","[35,40)","[60,80)",Low,High,Low,South
4048662,1637719770,Paducah,-88.6001,37.0834,4.1,2.26,3.36,5.43,1022,56,2.06,150,1,2.07,"[-95,-85)","[35,40)","[40,60)",Low,High,Very Low,South
4613868,1637719771,Clarksville,-87.3595,36.5298,3.18,0.25,0.61,5.14,1023,53,3.09,140,1,4.529999999999999,"[-95,-85)","[35,40)","[40,60)",Low,High,Low,South
4285268,1637719770,Bowling Green,-86.4436,36.9903,0.63,0.63,-1.59,3.29,1025,68,0,0,1,4.88,"[-95,-85)","[35,40)","[60,80)",Low,High,Very Low,North
4259640,1637719770,Jasper,-86.9311,38.3914,2.32,-0.79,0.34,3.75,1024,58,3.09,150,1,3.41,"[-95,-85)","[35,40)","[40,60)",Low,High,Low,South
4302035,1637719770,Murray,-88.3148,36.6103,4.07,4.07,1.45,5.7,1021,51,0.89,160,1,4.25,"[-95,-85)","[35,40)","[40,60)",Low,High,Very Low,South
4659557,1637719771,Springfield,-86.885,36.5092,1.94,0.4,-1.29,4.83,1024,59,1.54,130,75,6.12,"[-95,-85)","[35,40)","[40,60)",Low,High,Very Low,East
4243899,1637719770,Marion,-88.9331,37.7306,3.23,0.74,0.92,5.89,1022,55,2.57,150,1,4.97,"[-95,-85)","[35,40)","[40,60)",Low,High,Very Low,South
4266307,1637719770,Vincennes,-87.5286,38.6773,1.88,0.64,1.02,3.61,1022,67,1.34,124,1,2.59,"[-95,-85)","[35,40)","[60,80)",Low,High,Very Low,East
4305504,1637719770,Radcliff,-85.9491,37.8404,-0.58,-0.58,-3.14,2.79,1024,66,0.89,121,1,5.93,"[-95,-85)","[35,40)","[60,80)",Very Low,High,Very Low,East
4290988,1637719770,Elizabethtown,-85.8591,37.694,-0.57,-2.47,-3.13,2.79,1025,72,1.54,150,1,5.92,"[-95,-85)","[35,40)","[60,80)",Very Low,High,Very Low,South
4625282,1637719771,Goodlettsville,-86.7133,36.3231,2.5,0.11,-1.45,5.23,1026,71,2.32,125,0,6.680000000000001,"[-95,-85)","[35,40)","[60,80)",Low,High,Very Low,East
4245152,1637719770,Mt. Vernon,-88.9031,38.3173,3.92,2.05,1.68,5.14,1022,59,2.06,170,1,3.46,"[-95,-85)","[35,40)","[40,60)",Low,High,Very Low,South
4235193,1637719770,Carbondale,-89.2168,37.7273,3.68,0.49,2.9,5.24,1021,57,3.6,160,1,2.3400000000000003,"[-95,-85)","[35,40)","[40,60)",Low,High,Low,South
4628735,1637719771,Hendersonville,-86.62,36.3048,2.43,0.19,-1.46,5.22,1027,67,2.17,124,0,6.68,"[-95,-85)","[35,40)","[60,80)",Low,High,Very Low,East
4624180,1637719771,Gallatin,-86.4467,36.3884,1.81,-0.56,-1.56,5.06,1023,71,2.19,129,0,6.619999999999999,"[-95,-85)","[35,40)","[60,80)",Low,High,Very Low,East
4311963,1637719770,Valley Station,-85.8702,38.1112,0.27,-3.25,-2.64,2.67,1024,69,3.09,150,1,5.3100000000000005,"[-95,-85)","[35,40)","[60,80)",Low,High,Low,South
4304713,1637719770,Pleasure Ridge Park,-85.8583,38.1454,0.28,-3.24,-2.66,2.65,1024,68,3.09,150,1,5.3100000000000005,"[-95,-85)","[35,40)","[60,80)",Low,High,Low,South
4644585,1637719771,Nashville,-86.7844,36.1659,2.6,2.6,-1.49,5.18,1024,56,0,0,1,6.67,"[-95,-85)","[35,40)","[40,60)",Low,High,Very Low,North
4308225,1637719770,Shively,-85.8227,38.2001,0.38,-3.12,-2.65,2.65,1024,68,3.09,150,1,5.3,"[-95,-85)","[35,40)","[60,80)",Low,High,Low,South
4643336,1637719771,Mount Juliet,-86.5186,36.2001,2.17,0.66,-1.72,4.95,1025,63,1.54,150,1,6.67,"[-95,-85)","[35,40)","[60,80)",Low,High,Very Low,South
4262045,1637719770,New Albany,-85.8241,38.2856,0.38,-3.12,-2.65,2.65,1024,69,3.09,150,1,5.3,"[-95,-85)","[35,40)","[60,80)",Low,High,Low,South
4299276,1637719770,Louisville,-85.7594,38.2542,0.51,-1.93,-2.68,2.62,1024,65,2.06,150,1,5.300000000000001,"[-95,-85)","[35,40)","[60,80)",Low,High,Very Low,South
4303012,1637719770,Okolona,-85.6877,38.1412,0.49,-2.99,-2.68,2.77,1024,63,3.09,150,1,5.45,"[-95,-85)","[35,40)","[60,80)",Low,High,Low,South
4608408,1637719771,Brentwood,-86.7828,36.0331,1.79,0.23,-2.14,4.53,1026,55,1.54,150,1,6.67,"[-95,-85)","[35,40)","[40,60)",Low,High,Very Low,South
4255836,1637719770,Clarksville,-85.76,38.2967,0.46,-1.99,-2.65,2.65,1024,65,2.06,150,1,5.3,"[-95,-85)","[35,40)","[60,80)",Low,High,Very Low,South
4259671,1637719770,Jeffersonville,-85.7372,38.2776,0.53,-1.91,-2.65,2.65,1024,65,2.06,150,1,5.3,"[-95,-85)","[35,40)","[60,80)",Low,High,Very Low,South
4302504,1637719770,Newburg,-85.6597,38.1601,0.46,0.46,-2.75,2.69,1024,62,0.89,135,1,5.4399999999999995,"[-95,-85)","[35,40)","[60,80)",Low,High,Very Low,South
4636045,1637719771,Lebanon,-86.2911,36.2081,1.79,1.79,-1.07,5.05,1024,70,0,0,20,6.12,"[-95,-85)","[35,40)","[60,80)",Low,High,Very Low,North
4379966,1637719770,Cape Girardeau,-89.5182,37.3059,3.66,0.83,2.99,4.95,1021,64,3.09,130,1,1.96,"[-95,-85)","[35,40)","[60,80)",Low,High,Low,East
4294799,1637719770,Highview,-85.6241,38.1428,0.09,0.09,-3.1,2.34,1023,61,0.89,135,1,5.4399999999999995,"[-95,-85)","[35,40)","[60,80)",Low,High,Very Low,South
4307238,1637719770,Saint Matthews,-85.6558,38.2529,0.43,-2.03,-2.85,2.45,1023,62,2.06,150,1,5.300000000000001,"[-95,-85)","[35,40)","[60,80)",Low,High,Very Low,South
4291620,1637719770,Fern Creek,-85.5877,38.1598,0.12,0.12,-3.1,2.35,1024,61,0.89,135,1,5.45,"[-95,-85)","[35,40)","[60,80)",Low,High,Very Low,South
4623560,1637719771,Franklin,-86.8689,35.9251,1.82,-0.39,-1.82,4.86,1025,64,2.05,133,0,6.680000000000001,"[-95,-85)","[35,40)","[60,80)",Low,High,Very Low,East
4635031,1637719771,La Vergne,-86.5819,36.0156,2,2,-1.66,5.01,1025,60,0,0,1,6.67,"[-95,-85)","[35,40)","[60,80)",Low,High,Very Low,North
4296218,1637719770,Jeffersontown,-85.5644,38.1942,0.25,0.25,-2.99,2.45,1023,63,0.89,135,1,5.44,"[-95,-85)","[35,40)","[60,80)",Low,High,Very Low,South
4658590,1637719771,Smyrna,-86.5186,35.9828,1.89,1.89,-1.59,5.08,1023,72,0,0,1,6.67,"[-95,-85)","[35,40)","[60,80)",Low,High,Very Low,North
4408672,1637719770,Sikeston,-89.5879,36.8767,3.5,2.18,2.96,4.94,1022,81,1.54,150,1,1.9800000000000004,"[-95,-85)","[35,40)","[80,100)",Low,High,Very Low,South
4659446,1637719771,Spring Hill,-86.93,35.7512,1.12,-1.34,-1.97,4.71,1025,73,2.16,124,0,6.68,"[-95,-85)","[35,40)","[60,80)",Low,High,Very Low,East
4254679,1637719770,Bloomington,-86.5264,39.1653,1.21,-3.99,-1.71,2.12,1011,61,6.17,160,1,3.83,"[-95,-85)","[35,40)","[60,80)",Low,Low,High,South
4644312,1637719771,Murfreesboro,-86.3903,35.8456,1.4,1.4,-1.75,4.92,1024,75,0,0,75,6.67,"[-95,-85)","[35,40)","[60,80)",Low,High,Very Low,North
4614867,1637719771,Columbia,-87.0353,35.6151,1.54,1.54,-1.67,4.82,1024,67,0,0,1,6.49,"[-95,-85)","[35,40)","[60,80)",Low,High,Very Low,North
4264617,1637719770,Seymour,-85.8903,38.9592,0.37,0.37,-1.86,2.47,1024,60,0.89,358,0,4.33,"[-95,-85)","[35,40)","[60,80)",Low,High,Very Low,North
4265737,1637719770,Terre Haute,-87.4139,39.4667,2.03,2.03,-0.04,2.8,1022,64,0.45,167,1,2.84,"[-95,-85)","[35,40)","[60,80)",Low,High,Very Low,South
4235668,1637719770,Charleston,-88.1761,39.4962,1.75,-3.22,0.67,2.65,1022,51,5.99,170,2,1.98,"[-95,-85)","[35,40)","[40,60)",Low,High,Low,South
4615145,1637719771,Cookeville,-85.5016,36.1628,-0.56,-0.56,-3.16,3.79,1024,82,0,0,1,6.95,"[-95,-85)","[35,40)","[80,100)",Very Low,High,Very Low,North
4244099,1637719770,Mattoon,-88.3728,39.4831,2.13,-3.05,0.55,2.97,1020,56,6.69,160,1,2.42,"[-95,-85)","[35,40)","[40,60)",Low,High,High,South
4256038,1637719770,Columbus,-85.9214,39.2014,0.41,0.41,-1.84,2.44,1024,64,0.89,179,1,4.28,"[-95,-85)","[35,40)","[60,80)",Low,High,Very Low,South
4619800,1637719771,Dyersburg,-89.3856,36.0345,6.62,4.76,4.41,7.58,1023,49,2.57,140,1,3.17,"[-95,-85)","[35,40)","[40,60)",Low,High,Very Low,South
4632595,1637719771,Jackson,-88.814,35.6145,5.22,5.22,1.77,7.34,1020,58,0.45,152,1,5.57,"[-95,-85)","[35,40)","[40,60)",Low,High,Very Low,South
4657077,1637719771,Shelbyville,-86.4603,35.4834,0.27,-2.77,-2.07,3.56,1025,74,2.57,100,1,5.63,"[-95,-85)","[35,40)","[60,80)",Low,High,Very Low,East
4245926,1637719770,O'Fallon,-89.9112,38.5923,4.98,2.08,3.7,7.69,1019,52,3.6,170,1,3.99,"[-95,-85)","[35,40)","[40,60)",Low,Low,Low,South
4233813,1637719770,Belleville,-89.984,38.5201,5.22,2.37,3.79,7.78,1019,54,3.6,170,1,3.99,"[-95,-85)","[35,40)","[40,60)",Low,Low,Low,South
4238132,1637719770,Fairview Heights,-89.9904,38.5889,5.13,2.26,3.62,7.85,1019,53,3.6,170,1,4.2299999999999995,"[-95,-85)","[35,40)","[40,60)",Low,Low,Low,South
4236191,1637719770,Collinsville,-89.9846,38.6703,5.19,2.02,3.68,7.91,1019,54,4.12,160,1,4.23,"[-95,-85)","[35,40)","[40,60)",Low,Low,Low,South
4828382,1637719771,Franklin,-86.055,39.4806,0.49,-2.51,-1.41,2.25,1023,62,2.57,150,1,3.66,"[-95,-85)","[35,40)","[60,80)",Low,High,Very Low,South
4237717,1637719770,Edwardsville,-89.9532,38.8114,5.16,2.61,3.71,7.94,1019,53,3.13,163,1,4.23,"[-95,-85)","[35,40)","[40,60)",Low,Low,Low,South
4263108,1637719770,Plainfield,-86.3994,39.7042,0.75,-3.44,-1.44,2.22,1022,56,4.12,150,20,3.66,"[-95,-85)","[35,40)","[40,60)",Low,High,Low,South
4663494,1637719771,Tullahoma,-86.2094,35.362,-0.05,-0.05,-1.71,1.88,1024,69,0,0,1,3.59,"[-95,-85)","[35,40)","[60,80)",Very Low,High,Very Low,North
4258313,1637719770,Greenwood,-86.1067,39.6137,0.38,0.38,-1.59,2.07,1022,59,0.89,171,1,3.66,"[-95,-85)","[35,40)","[40,60)",Low,High,Very Low,South
4264688,1637719770,Shelbyville,-85.7769,39.5214,0.26,-4.37,-1.68,2.12,1023,51,4.63,160,1,3.8,"[-95,-85)","[35,40)","[40,60)",Low,High,Low,South
4255056,1637719770,Brownsburg,-86.3978,39.8434,0.54,-0.88,-1.74,1.88,1023,56,1.34,155,1,3.62,"[-95,-85)","[35,40)","[40,60)",Low,High,Very Low,South
4102412,1637719770,Blytheville,-89.919,35.9273,6.49,4.53,4.45,8.04,1022,52,2.68,150,1,3.589999999999999,"[-95,-85)","[35,40)","[40,60)",Low,High,Very Low,South
4259418,1637719770,Indianapolis,-86.158,39.7684,0.68,-3.53,-1.4,2.22,1022,59,4.12,150,20,3.62,"[-95,-85)","[35,40)","[40,60)",Low,High,Low,South
4236895,1637719770,Decatur,-88.9548,39.8403,2.24,-3.11,0.7,4.28,1019,65,7.2,170,1,3.58,"[-95,-85)","[35,40)","[60,80)",Low,Low,High,South
4260210,1637719770,Lawrence,-86.0253,39.8387,0.27,-3.66,-1.72,1.9,1023,59,3.6,160,1,3.62,"[-95,-85)","[35,40)","[40,60)",Low,High,Low,South
4258285,1637719770,Greenfield,-85.7694,39.785,0.11,-1.36,-1.9,1.89,1023,57,1.34,168,1,3.79,"[-95,-85)","[35,40)","[40,60)",Low,High,Very Low,South
4255466,1637719770,Carmel,-86.118,39.9784,0.5,0.5,-1.09,1.97,1021,60,0.89,181,1,3.06,"[-95,-85)","[35,40)","[60,80)",Low,High,Very Low,South
4257494,1637719770,Fishers,-86.0139,39.9556,0.39,0.39,-1.62,2.01,1017,59,0.89,167,1,3.63,"[-95,-85)","[35,40)","[40,60)",Low,Low,Very Low,South
4250542,1637719770,Springfield,-89.6437,39.8017,3.28,-2.47,1.08,5.03,1018,61,9.26,170,1,3.95,"[-95,-85)","[35,40)","[60,80)",Low,Low,Very High,South
4262072,1637719770,New Castle,-85.3702,39.9289,-0.7,-0.7,-2.4,0.77,1025,65,0.45,217,2,3.17,"[-95,-85)","[35,40)","[60,80)",Very Low,High,Very Low,South
4604183,1637719771,Bartlett,-89.874,35.2045,6.6,4.74,4.47,9.05,1022,60,2.57,130,1,4.580000000000001,"[-95,-85)","[35,40)","[60,80)",Low,High,Very Low,East
4614748,1637719771,Collierville,-89.6645,35.042,6.44,4.17,3.43,8.86,1022,57,3.09,150,1,5.43,"[-95,-85)","[35,40)","[40,60)",Low,High,Low,South
4612862,1637719771,Chattanooga,-85.3097,35.0456,1.13,1.13,-1.36,4.23,1026,72,0,0,1,5.590000000000001,"[-95,-85)","[35,40)","[60,80)",Low,High,Very Low,North
4619947,1637719771,East Chattanooga,-85.2491,35.0654,1,1,-1.36,4.23,1026,73,0,0,1,5.590000000000001,"[-95,-85)","[35,40)","[60,80)",Low,High,Very Low,North
4624601,1637719771,Germantown,-89.8101,35.0868,6.46,6.46,3.7,8.87,1022,56,0.45,113,1,5.169999999999999,"[-95,-85)","[35,40)","[40,60)",Low,High,Very Low,East
4620131,1637719771,East Ridge,-85.2519,35.0142,0.86,0.86,-1.49,3.87,1026,72,0,0,1,5.36,"[-95,-85)","[35,40)","[60,80)",Low,High,Very Low,North
4809537,1637719771,Huntington,-82.4452,38.4193,-2.1,-2.1,-3.61,-0.13,1026,76,0.45,150,1,3.48,"[-85,-75)","[35,40)","[60,80)",Very Low,High,Very Low,South
4608657,1637719771,Bristol,-82.1887,36.5951,-2.02,-2.02,-4.46,1.83,1004,64,0,0,1,6.29,"[-85,-75)","[35,40)","[60,80)",Very Low,Very Low,Very Low,North
4634662,1637719771,Kingsport,-82.5618,36.5484,-1.2,-1.2,-3.94,1.58,1026,69,0.45,13,1,5.52,"[-85,-75)","[35,40)","[60,80)",Very Low,High,Very Low,North
4282757,1637719770,Ashland,-82.6379,38.4784,-1.79,-1.79,-3.55,-0.07,1026,73,0,0,1,3.48,"[-85,-75)","[35,40)","[60,80)",Very Low,High,Very Low,North
4798308,1637719771,Beckley,-81.1882,37.7782,-3.4,-5.7,-5.68,-2.18,1024,60,1.54,270,1,3.4999999999999996,"[-85,-75)","[35,40)","[60,80)",Very Low,High,Very Low,West
4801859,1637719771,Charleston,-81.6326,38.3498,-2.41,-2.41,-3.79,-1.59,1023,75,0,0,1,2.2,"[-85,-75)","[35,40)","[60,80)",Very Low,High,Very Low,North
4633419,1637719771,Johnson City,-82.3535,36.3134,-1.69,-3.75,-4.44,1.86,1025,74,1.54,20,1,6.300000000000001,"[-85,-75)","[35,40)","[60,80)",Very Low,High,Very Low,North
4521816,1637719771,Portsmouth,-82.9977,38.7317,-0.44,-0.44,-1.98,1.49,1012,65,0,0,1,3.4699999999999998,"[-85,-75)","[35,40)","[60,80)",Very Low,Low,Very Low,North
4626334,1637719771,Greeneville,-82.831,36.1632,-0.99,-0.99,-3.98,2.37,1025,64,0,0,1,6.35,"[-85,-75)","[35,40)","[60,80)",Very Low,High,Very Low,North
4313697,1637719770,Winchester,-84.1796,37.9901,-1.68,-1.68,-3.75,0.42,1026,71,0.89,178,1,4.17,"[-85,-75)","[35,40)","[60,80)",Very Low,High,Very Low,South
4642938,1637719771,Morristown,-83.2949,36.214,-0.48,-0.48,-4.06,2.9,1026,64,0,0,1,6.959999999999999,"[-85,-75)","[35,40)","[60,80)",Very Low,High,Very Low,North
4305974,1637719770,Richmond,-84.2946,37.7479,-1.63,-1.63,-3.69,0.48,1025,66,0,0,1,4.17,"[-85,-75)","[35,40)","[60,80)",Very Low,High,Very Low,North
4456703,1637719771,Boone,-81.6746,36.2168,-2.75,-9.75,-6.74,-1.25,1023,55,8.23,290,3,5.49,"[-85,-75)","[35,40)","[40,60)",Very Low,High,High,West
4780837,1637719630,Radford,-80.5764,37.1318,-1.64,-3.69,-4.59,1.51,1025,61,1.54,230,1,6.1,"[-85,-75)","[35,40)","[60,80)",Very Low,High,Very Low,West
4297983,1637719770,Lexington,-84.4777,37.9887,-1.82,-5.25,-3.75,0.5,1022,71,2.57,150,1,4.25,"[-85,-75)","[35,40)","[60,80)",Very Low,High,Very Low,South
4297999,1637719770,Lexington-Fayette,-84.4585,38.0498,-1.86,-5.3,-3.78,0.47,1023,71,2.57,150,1,4.25,"[-85,-75)","[35,40)","[60,80)",Very Low,High,Very Low,South
4747845,1637719771,Blacksburg,-80.4139,37.2296,-2.11,-5.6,-5.1,1,1026,63,2.57,300,1,6.1,"[-85,-75)","[35,40)","[60,80)",Very Low,High,Very Low,West
4302561,1637719770,Nicholasville,-84.573,37.8806,-1.64,-5.04,-3.67,0.5,1025,72,2.57,150,1,4.17,"[-85,-75)","[35,40)","[60,80)",Very Low,High,Very Low,South
4752665,1637719771,Christiansburg,-80.4089,37.1298,-2.07,-5.55,-5.08,1.02,1024,60,2.57,300,1,6.1,"[-85,-75)","[35,40)","[60,80)",Very Low,High,Very Low,West
4475640,1637719771,Lenoir,-81.539,35.914,0.36,0.36,-2.34,3.25,1025,62,0,0,1,5.59,"[-85,-75)","[35,40)","[60,80)",Low,High,Very Low,North
4292686,1637719770,Georgetown,-84.5588,38.2098,-1.64,-5.04,-3.54,0.71,1026,77,2.57,150,1,4.25,"[-85,-75)","[35,40)","[60,80)",Very Low,High,Very Low,South
4289445,1637719770,Danville,-84.7722,37.6456,-1.55,-1.55,-3.73,0.43,1025,80,0,0,1,4.16,"[-85,-75)","[35,40)","[80,100)",Very Low,High,Very Low,North
4505542,1637719771,Athens,-82.1013,39.3292,-3.01,-3.01,-4.13,-1.01,1025,76,0,0,1,3.12,"[-85,-75)","[35,40)","[60,80)",Very Low,High,Very Low,North
4828890,1637719771,Chillicothe,-82.9824,39.3331,-2.54,-4.72,-3.83,-0.27,1024,82,1.54,170,1,3.56,"[-85,-75)","[35,40)","[80,100)",Very Low,High,Very Low,South
4480219,1637719771,Morganton,-81.6848,35.7454,0.27,0.27,-2.29,3.85,1025,58,0.45,146,1,6.140000000000001,"[-85,-75)","[35,40)","[40,60)",Low,High,Very Low,South
4453066,1637719771,Asheville,-82.554,35.6009,-0.49,-2.38,-4.28,2.13,1024,60,1.54,300,1,6.41,"[-85,-75)","[35,40)","[60,80)",Very Low,High,Very Low,West
4817641,1637719771,Parkersburg,-81.5615,39.2667,-2.59,-2.59,-4.13,-1.02,1026,76,0,0,1,3.11,"[-85,-75)","[35,40)","[60,80)",Very Low,High,Very Low,North
4634946,1637719771,Knoxville,-83.9207,35.9606,0.81,0.81,-2.9,3.6,1027,62,0,0,1,6.5,"[-85,-75)","[35,40)","[60,80)",Low,High,Very Low,North
4784112,1637719630,Salem,-80.0548,37.2935,0.02,0.02,-3.08,1.86,1025,54,0.45,263,1,4.94,"[-85,-75)","[35,40)","[40,60)",Low,High,Very Low,West
4751421,1637719771,Cave Spring,-80.0128,37.2276,0.06,0.06,-3.14,1.81,1026,54,0.45,315,1,4.95,"[-85,-75)","[35,40)","[40,60)",Low,High,Very Low,North
4470778,1637719771,Hickory,-81.3412,35.7332,0.2,0.2,-2.24,3.46,1024,60,0.89,198,1,5.7,"[-85,-75)","[35,40)","[60,80)",Low,High,Very Low,South
4292188,1637719770,Frankfort,-84.8733,38.2009,-0.67,-3.31,-2.79,2.51,1024,75,2.06,150,1,5.3,"[-85,-75)","[35,40)","[60,80)",Very Low,High,Very Low,South
4646571,1637719771,Oak Ridge,-84.2696,36.0104,0.5,0.5,-2.82,3.69,1026,70,0,0,1,6.51,"[-85,-75)","[35,40)","[60,80)",Low,High,Very Low,North
4621846,1637719771,Farragut,-84.1535,35.8845,0.73,0.73,-2.86,3.64,1024,66,0.45,55,1,6.5,"[-85,-75)","[35,40)","[60,80)",Low,High,Very Low,East
4639848,1637719771,Maryville,-83.9705,35.7565,0.88,0.88,-2.9,3.6,1026,61,0.45,136,1,6.5,"[-85,-75)","[35,40)","[60,80)",Low,High,Very Low,South
4493316,1637719771,Statesville,-80.8873,35.7826,0.47,-1.28,-1.32,3.01,1025,53,1.54,170,1,4.33,"[-85,-75)","[35,40)","[40,60)",Low,High,Very Low,South
4295776,1637719771,Independence,-84.5441,38.9431,-0.87,-4.63,-3.95,1.49,1024,65,3.09,190,20,5.44,"[-85,-75)","[35,40)","[60,80)",Very Low,High,Low,South
4292071,1637719770,Fort Thomas,-84.4472,39.0751,-0.62,-0.62,-3.57,1.87,1018,66,0,0,1,5.4399999999999995,"[-85,-75)","[35,40)","[60,80)",Very Low,Low,Very Low,North
4516233,1637719771,Lancaster,-82.5993,39.7137,-2.4,-2.4,-4.26,-0.42,1025,80,0,0,1,3.84,"[-85,-75)","[35,40)","[80,100)",Very Low,High,Very Low,North
4302529,1637719770,Newport,-84.4958,39.0915,-0.24,-0.24,-3.24,2.2,1016,67,0,0,1,5.44,"[-85,-75)","[35,40)","[60,80)",Very Low,Low,Very Low,North
4288809,1637719770,Covington,-84.5086,39.0837,-0.17,-0.17,-3.19,2.25,1014,67,0,0,1,5.4399999999999995,"[-85,-75)","[35,40)","[60,80)",Very Low,Low,Very Low,North
4291255,1637719770,Erlanger,-84.6008,39.0167,-0.9,-4.66,-3.99,1.46,1024,68,3.09,190,20,5.45,"[-85,-75)","[35,40)","[60,80)",Very Low,High,Low,South
4291945,1637719770,Florence,-84.6266,38.999,-0.76,-0.76,-3.82,1.48,1024,66,0.45,180,20,5.3,"[-85,-75)","[35,40)","[60,80)",Very Low,High,Very Low,South
4461015,1637719771,Clemmons,-80.382,36.0215,0.1,-2.07,-2.4,3.03,1025,56,1.79,128,1,5.43,"[-85,-75)","[35,40)","[40,60)",Low,High,Very Low,East
4508722,1637719771,Cincinnati,-84.4569,39.162,-0.49,-0.49,-3.45,1.99,1018,68,0,0,1,5.44,"[-85,-75)","[35,40)","[60,80)",Very Low,Low,Very Low,North
4499612,1637719771,Winston-Salem,-80.2442,36.0999,0,0,-2.5,2.41,1025,56,0,0,1,4.91,"[-85,-75)","[35,40)","[40,60)",Low,High,Very Low,North
4286281,1637719770,Burlington,-84.7241,39.0276,-0.63,-4.34,-3.71,1.59,1024,66,3.09,190,20,5.3,"[-85,-75)","[35,40)","[60,80)",Very Low,High,Low,South
4517698,1637719771,Mason,-84.3099,39.3601,-0.92,-2.53,-3.75,1.69,1027,67,1.34,180,1,5.4399999999999995,"[-85,-75)","[35,40)","[60,80)",Very Low,High,Very Low,South
4491180,1637719771,Shelby,-81.5357,35.2924,1.92,1.92,-1.62,4.48,1026,41,0.45,29,1,6.1000000000000005,"[-85,-75)","[35,40)","[40,60)",Low,High,Very Low,North
4480125,1637719771,Mooresville,-80.8101,35.5849,0.55,-1.68,-2.32,3.68,1023,54,1.89,43,0,6,"[-85,-75)","[35,40)","[40,60)",Low,High,Very Low,North
4516412,1637719771,Lebanon,-84.203,39.4353,-0.95,-4.22,-3.9,1.73,1024,69,2.57,170,1,5.63,"[-85,-75)","[35,40)","[60,80)",Very Low,High,Very Low,South
4528259,1637719771,White Oak,-84.5994,39.2131,-0.9,-0.9,-3.95,1.49,1024,66,0.45,209,1,5.44,"[-85,-75)","[35,40)","[60,80)",Very Low,High,Very Low,South
4512060,1637719771,Forest Park,-84.5041,39.2903,-0.79,-0.79,-3.78,1.66,1024,68,0.89,170,1,5.4399999999999995,"[-85,-75)","[35,40)","[60,80)",Very Low,High,Very Low,South
4474221,1637719771,Kernersville,-80.0736,36.1199,-0.32,-0.32,-2.74,2.17,1026,58,0,0,1,4.91,"[-85,-75)","[35,40)","[40,60)",Very Low,High,Very Low,North
4521209,1637719771,Pickerington,-82.7535,39.8842,-2.08,-2.08,-3.97,-0.41,1025,78,0.45,219,1,3.56,"[-85,-75)","[35,40)","[60,80)",Very Low,High,Very Low,South
4461941,1637719771,Cornelius,-80.8601,35.4868,1.03,1.03,-2.09,4.45,1025,57,0,0,1,6.54,"[-85,-75)","[35,40)","[40,60)",Low,High,Very Low,North
4513409,1637719771,Grove City,-83.093,39.8815,-1.91,-4.76,-4.06,-0.4,1023,78,2.06,170,1,3.6599999999999997,"[-85,-75)","[35,40)","[60,80)",Very Low,High,Very Low,South
4489985,1637719771,Salisbury,-80.4742,35.671,0.16,0.16,-2.24,3.49,1025,59,0,0,1,5.73,"[-85,-75)","[35,40)","[40,60)",Low,High,Very Low,North
4511283,1637719771,Fairfield,-84.5605,39.3459,-0.39,-0.39,-3.38,2.06,1023,66,0.89,170,1,5.4399999999999995,"[-85,-75)","[35,40)","[60,80)",Very Low,High,Very Low,South
4528810,1637719771,Xenia,-83.9296,39.6848,-1.51,-4.29,-4.25,1.38,1023,69,2.06,180,1,5.63,"[-85,-75)","[35,40)","[60,80)",Very Low,High,Very Low,South
4802316,1637719771,Clarksburg,-80.3445,39.2807,-2.35,-2.35,-5.15,-0.13,1025,74,0,0,1,5.0200000000000005,"[-85,-75)","[35,40)","[60,80)",Very Low,High,Very Low,North
4525304,1637719771,Springboro,-84.2333,39.5523,-0.96,-4.23,-3.76,1.68,1021,70,2.57,190,1,5.4399999999999995,"[-85,-75)","[35,40)","[60,80)",Very Low,High,Very Low,South
4475773,1637719771,Lexington,-80.2534,35.824,-0.03,-0.03,-2.31,2.49,1025,62,0,0,1,4.800000000000001,"[-85,-75)","[35,40)","[60,80)",Very Low,High,Very Low,North
4522411,1637719771,Reynoldsburg,-82.8121,39.9548,-2.02,-2.02,-4.02,-0.45,1023,76,0.45,219,1,3.5699999999999994,"[-85,-75)","[35,40)","[60,80)",Very Low,High,Very Low,South
4528923,1637719771,Zanesville,-82.0132,39.9404,-2.19,-5.69,-3.79,-0.16,1025,78,2.57,200,1,3.63,"[-85,-75)","[35,40)","[60,80)",Very Low,High,Very Low,South
4467732,1637719771,Gastonia,-81.1873,35.2621,1.56,-0.94,-1.16,4.13,1024,58,2.27,58,0,5.29,"[-85,-75)","[35,40)","[40,60)",Low,High,Very Low,East
4472370,1637719771,Huntersville,-80.8429,35.4107,1.2,1.2,-2.06,4.49,1025,59,0,0,1,6.550000000000001,"[-85,-75)","[35,40)","[40,60)",Low,High,Very Low,North
4528291,1637719771,Whitehall,-82.8855,39.9667,-1.86,-4.7,-3.88,-0.32,1024,77,2.06,150,1,3.56,"[-85,-75)","[35,40)","[60,80)",Very Low,High,Very Low,South
4509177,1637719771,Columbus,-82.9988,39.9612,-1.75,-4.57,-3.9,-0.24,1024,76,2.06,150,1,3.66,"[-85,-75)","[35,40)","[60,80)",Very Low,High,Very Low,South
4508204,1637719771,Centerville,-84.1594,39.6284,-1.43,-4.79,-4.2,1.24,1025,70,2.57,190,1,5.44,"[-85,-75)","[35,40)","[60,80)",Very Low,High,Very Low,South
4513575,1637719771,Hamilton,-84.5613,39.3995,-0.42,-0.42,-3.39,2.05,1022,67,0,0,1,5.4399999999999995,"[-85,-75)","[35,40)","[60,80)",Very Low,High,Very Low,North
4518264,1637719771,Middletown,-84.3983,39.5151,-0.64,-0.64,-3.51,1.93,1021,70,0,0,1,5.4399999999999995,"[-85,-75)","[35,40)","[60,80)",Very Low,High,Very Low,North
4474040,1637719771,Kannapolis,-80.6217,35.4874,0.69,0.69,-2.06,3.47,1026,58,0,0,1,5.53,"[-85,-75)","[35,40)","[40,60)",Low,High,Very Low,North
4506008,1637719771,Beavercreek,-84.0633,39.7092,-1.23,-3.97,-4.1,1.54,1025,68,2.06,180,1,5.64,"[-85,-75)","[35,40)","[60,80)",Very Low,High,Very Low,South
4494942,1637719771,Thomasville,-80.082,35.8826,-0.04,-3.17,-2.59,2.29,1025,66,2.6,1,0,4.88,"[-85,-75)","[35,40)","[60,80)",Very Low,High,Very Low,North
4471025,1637719771,High Point,-80.0053,35.9557,-0.07,-0.07,-2.71,2.16,1025,62,0,0,1,4.87,"[-85,-75)","[35,40)","[60,80)",Very Low,High,Very Low,North
4526993,1637719771,Upper Arlington,-83.0624,39.9945,-1.86,-1.86,-3.95,-0.38,1027,77,0.89,182,1,3.5700000000000003,"[-85,-75)","[35,40)","[60,80)",Very Low,High,Very Low,South
4515843,1637719771,Kettering,-84.1688,39.6895,-1.46,-1.46,-4.42,1.22,1026,69,0.45,233,1,5.64,"[-85,-75)","[35,40)","[60,80)",Very Low,High,Very Low,West
4518188,1637719771,Miamisburg,-84.2866,39.6428,-0.82,-4.07,-3.62,1.82,1027,70,2.57,190,1,5.44,"[-85,-75)","[35,40)","[60,80)",Very Low,High,Very Low,South
4461574,1637719771,Concord,-80.5795,35.4087,0.94,0.94,-1.84,3.69,1027,59,0,0,1,5.53,"[-85,-75)","[35,40)","[40,60)",Low,High,Very Low,North
4511263,1637719771,Fairborn,-84.0194,39.8209,-1.22,-1.22,-4.06,1.49,1024,67,0,0,1,5.55,"[-85,-75)","[35,40)","[60,80)",Very Low,High,Very Low,North
4522586,1637719771,Riverside,-84.1241,39.7798,-1.03,-1.03,-3.95,1.68,1023,66,0,0,1,5.63,"[-85,-75)","[35,40)","[60,80)",Very Low,High,Very Low,North
4509884,1637719771,Dayton,-84.1916,39.7589,-0.9,-0.9,-3.68,1.76,1023,66,0.45,233,1,5.44,"[-85,-75)","[35,40)","[60,80)",Very Low,High,Very Low,West
4525353,1637719771,Springfield,-83.8088,39.9242,-1.67,-1.67,-4.28,1.17,1023,74,0.89,165,1,5.45,"[-85,-75)","[35,40)","[60,80)",Very Low,High,Very Low,South
4460243,1637719771,Charlotte,-80.8431,35.2271,1.76,1.76,-2,4.65,1026,55,0.45,321,1,6.65,"[-85,-75)","[35,40)","[40,60)",Low,High,Very Low,North
4514746,1637719771,Huber Heights,-84.1247,39.8439,-1.39,-3.06,-4.31,1.24,1025,67,1.34,166,1,5.55,"[-85,-75)","[35,40)","[60,80)",Very Low,High,Very Low,South
4520760,1637719771,Oxford,-84.7452,39.507,-1.13,-4.61,-4.04,1.4,1026,71,2.74,186,2,5.4399999999999995,"[-85,-75)","[35,40)","[60,80)",Very Low,High,Very Low,South
4526576,1637719771,Trotwood,-84.3113,39.7973,-1.09,-4.89,-3.86,1.58,1023,69,3.09,170,1,5.4399999999999995,"[-85,-75)","[35,40)","[60,80)",Very Low,High,Low,South
4805404,1637719771,Fairmont,-80.1426,39.4851,-2.05,-2.05,-4.01,0.14,1002,70,1.29,209,0,4.1499999999999995,"[-85,-75)","[35,40)","[60,80)",Very Low,Very Low,Very Low,South
4527124,1637719771,Vandalia,-84.1988,39.8906,-1.38,-5.24,-4.17,1.19,1025,66,3.09,170,1,5.359999999999999,"[-85,-75)","[35,40)","[60,80)",Very Low,High,Low,South
4479759,1637719771,Mint Hill,-80.6473,35.1796,1.6,-0.33,-2.07,4.36,1025,56,1.79,72,1,6.43,"[-85,-75)","[35,40)","[40,60)",Low,High,Very Low,East
4478334,1637719771,Matthews,-80.7237,35.1168,1.85,-0.04,-1.98,4.45,1024,55,1.79,72,1,6.43,"[-85,-75)","[35,40)","[40,60)",Low,High,Very Low,East
4452303,1637719771,Albemarle,-80.2001,35.3501,0.32,0.32,-1.88,4.03,1027,80,0,0,1,5.91,"[-85,-75)","[35,40)","[80,100)",Low,High,Very Low,North
4472687,1637719771,Indian Trail,-80.6692,35.0768,1.82,0.26,-2.28,4.52,1024,54,1.54,20,1,6.799999999999999,"[-85,-75)","[35,40)","[40,60)",Low,High,Very Low,North
4263681,1637719770,Richmond,-84.8902,39.8289,-1.64,-5.55,-3.66,1.09,1025,73,3.09,180,1,4.75,"[-85,-75)","[35,40)","[60,80)",Very Low,High,Low,South
4614088,1637719771,Cleveland,-84.8766,35.1595,-0.29,-0.29,-2.82,4.05,1026,80,0,0,1,6.869999999999999,"[-85,-75)","[35,40)","[80,100)",Very Low,High,Very Low,North
4748305,1637719771,Bon Air,-77.5578,37.5249,-1.17,-4.77,-3.19,1.01,1025,68,2.86,346,0,4.2,"[-85,-75)","[35,40)","[60,80)",Very Low,High,Very Low,North
4781708,1637719630,Richmond,-77.4603,37.5538,-0.86,-3.53,-3.01,1.64,1025,63,2.06,350,1,4.6499999999999995,"[-85,-75)","[35,40)","[60,80)",Very Low,High,Very Low,North
4790207,1637719771,Tuckahoe,-77.5564,37.5901,-0.94,-0.94,-3.05,1.15,1025,65,0,0,1,4.199999999999999,"[-85,-75)","[35,40)","[60,80)",Very Low,High,Very Low,North
4768678,1637719771,Laurel,-77.5089,37.6429,-0.84,-0.84,-3.05,1.61,1025,65,0,0,1,4.66,"[-85,-75)","[35,40)","[60,80)",Very Low,High,Very Low,North
4764127,1637719771,Highland Springs,-77.3278,37.546,-0.68,-3.32,-2.94,1.72,1024,60,2.06,350,1,4.66,"[-85,-75)","[35,40)","[60,80)",Very Low,High,Very Low,North
4772566,1637719771,Mechanicsville,-77.3733,37.6088,-0.68,-3.32,-2.96,1.69,1025,60,2.06,350,1,4.65,"[-85,-75)","[35,40)","[60,80)",Very Low,High,Very Low,North
4752229,1637719771,Chester,-77.4417,37.3568,-1.13,-3.85,-2.97,1.69,1025,72,2.06,350,1,4.66,"[-85,-75)","[35,40)","[60,80)",Very Low,High,Very Low,North
4785576,1637719771,Short Pump,-77.6125,37.6504,-1.05,-1.05,-3.17,1.03,1026,64,0,0,1,4.2,"[-85,-75)","[35,40)","[60,80)",Very Low,High,Very Low,North
4753671,1637719771,Colonial Heights,-77.4073,37.268,-1.05,-1.05,-2.74,1.92,1025,73,0,0,1,4.66,"[-85,-75)","[35,40)","[60,80)",Very Low,High,Very Low,North
4764826,1637719630,Hopewell,-77.2872,37.3043,-0.77,-3.7,-2.71,1.95,1026,71,2.29,345,0,4.66,"[-85,-75)","[35,40)","[60,80)",Very Low,High,Very Low,North
4778626,1637719630,Petersburg,-77.4019,37.2279,-1.07,-1.07,-2.71,1.95,1025,73,0,0,1,4.66,"[-85,-75)","[35,40)","[60,80)",Very Low,High,Very Low,North
4760059,1637719630,Fredericksburg,-77.4605,38.3032,0.34,0.34,-2.25,3.3,1023,54,0.45,299,1,5.55,"[-85,-75)","[35,40)","[40,60)",Low,High,Very Low,West
4752031,1637719630,Charlottesville,-78.4767,38.0293,-1.07,-1.07,-3.28,1.19,1025,59,0.45,80,0,4.47,"[-85,-75)","[35,40)","[40,60)",Very Low,High,Very Low,East
4776024,1637719771,Newport News,-76.428,36.9788,3.94,0.81,-0.44,7.01,1024,52,3.6,320,1,7.45,"[-85,-75)","[35,40)","[40,60)",Low,High,Low,North
4762894,1637719771,Hampton,-76.3452,37.0299,3.94,0.81,-0.42,7.03,1024,51,3.6,320,1,7.45,"[-85,-75)","[35,40)","[40,60)",Low,High,Low,North
4756955,1637719771,East Hampton,-76.3316,37.0374,3.94,1.49,-0.42,7.03,1024,51,2.68,313,1,7.45,"[-85,-75)","[35,40)","[40,60)",Low,High,Very Low,West
4488232,1637719771,Roanoke Rapids,-77.6542,36.4615,-1.9,-1.9,-4.17,-0.37,1025,100,0,0,1,3.8,"[-85,-75)","[35,40)","[80,100)",Very Low,High,Very Low,North
4754966,1637719771,Culpeper,-77.9967,38.4732,-1.13,-1.13,-3.61,1.39,1026,60,0.45,19,1,5,"[-85,-75)","[35,40)","[60,80)",Very Low,High,Very Low,North
4788158,1637719771,Suffolk,-76.5836,36.7282,3.65,3.65,-0.96,6.95,1025,61,0,0,1,7.91,"[-85,-75)","[35,40)","[60,80)",Low,High,Very Low,North
4786714,1637719771,South Suffolk,-76.5902,36.7171,3.49,3.49,-1.2,6.94,1025,69,0,0,1,8.14,"[-85,-75)","[35,40)","[60,80)",Low,High,Very Low,North
4752136,1637719771,Cherry Hill,-77.2669,38.5698,1.17,-2.57,-1.71,3.43,1025,54,3.6,310,1,5.140000000000001,"[-85,-75)","[35,40)","[40,60)",Low,High,Low,West
4773677,1637719771,Montclair,-77.3397,38.611,0.78,-3.04,-2.01,3.14,1025,59,3.6,310,1,5.15,"[-85,-75)","[35,40)","[40,60)",Low,High,Low,West
4780011,1637719771,Portsmouth Heights,-76.3688,36.821,4.22,2.22,-0.89,7.03,1024,48,2.24,348,1,7.92,"[-85,-75)","[35,40)","[40,60)",Low,High,Very Low,North
4755158,1637719771,Dale City,-77.3111,38.6371,0.76,0.76,-2.1,3.04,1026,58,0,0,1,5.140000000000001,"[-85,-75)","[35,40)","[40,60)",Low,High,Very Low,North
4779999,1637719771,Portsmouth,-76.2983,36.8354,4.3,3.37,-0.88,7.03,1024,48,1.34,330,1,7.91,"[-85,-75)","[35,40)","[40,60)",Low,High,Very Low,North
4776222,1637719771,Norfolk,-76.2852,36.8468,4.35,3.43,-0.83,7.03,1024,48,1.34,330,1,7.86,"[-85,-75)","[35,40)","[40,60)",Low,High,Very Low,North
4367734,1637719770,Saint Charles,-76.9386,38.6032,1.29,-2.07,-1.62,3.62,1024,51,3.14,309,0,5.24,"[-85,-75)","[35,40)","[40,60)",Low,High,Low,West
4752186,1637719771,Chesapeake,-76.2749,36.819,4.36,1.33,-0.39,7.01,1024,48,3.58,275,1,7.3999999999999995,"[-85,-75)","[35,40)","[40,60)",Low,High,Low,West
4768351,1637719771,Lake Ridge,-77.2978,38.6879,0.84,0.84,-2.05,3.05,1026,57,0,0,1,5.1,"[-85,-75)","[35,40)","[40,60)",Low,High,Very Low,North
4372599,1637719770,Waldorf,-76.9391,38.6246,1.3,-2.13,-1.61,3.62,1024,52,3.23,310,0,5.23,"[-85,-75)","[35,40)","[40,60)",Low,High,Low,West
4770714,1637719771,Lorton,-77.2278,38.7043,1.14,1.14,-1.67,3.19,1023,55,0,0,1,4.859999999999999,"[-85,-75)","[35,40)","[40,60)",Low,High,Very Low,North
4749627,1637719771,Buckhall,-77.4311,38.7318,0.49,-3.23,-2.22,2.92,1025,57,3.38,311,0,5.140000000000001,"[-85,-75)","[35,40)","[40,60)",Low,High,Low,West
4792522,1637719630,Waynesboro,-78.8895,38.0685,-2.99,-2.99,-4.98,-0.51,1024,61,0,0,1,4.470000000000001,"[-85,-75)","[35,40)","[60,80)",Very Low,High,Very Low,North
4794531,1637719771,Woodlawn,-77.1328,38.7168,1.49,1.49,-1.45,3.41,1024,54,0,0,1,4.86,"[-85,-75)","[35,40)","[40,60)",Low,High,Very Low,North
4771401,1637719630,Manassas,-77.4753,38.751,0.35,-3.35,-2.3,2.82,1024,57,3.32,310,0,5.119999999999999,"[-85,-75)","[35,40)","[40,60)",Low,High,Low,West
4769667,1637719771,Linton Hall,-77.575,38.7598,0.23,-3.27,-2.4,2.97,1024,58,3.05,309,0,5.37,"[-85,-75)","[35,40)","[40,60)",Low,High,Low,West
4355355,1637719770,Ft. Washington,-77.023,38.7073,1.33,1.33,-1.49,3.15,1023,50,0,0,1,4.64,"[-85,-75)","[35,40)","[40,60)",Low,High,Very Low,North
4046704,1637719770,Fort Hunt,-77.058,38.7329,1.54,1.54,-1.25,3.36,1024,52,0,0,1,4.609999999999999,"[-85,-75)","[35,40)","[40,60)",Low,High,Very Low,North
4765520,1637719771,Hybla Valley,-77.083,38.7476,1.51,1.51,-1.27,3.37,1024,52,0,0,1,4.640000000000001,"[-85,-75)","[35,40)","[40,60)",Low,High,Very Low,North
4792901,1637719771,West Springfield,-77.2211,38.7726,0.92,-0.45,-1.93,2.93,1022,54,1.34,274,1,4.86,"[-85,-75)","[35,40)","[40,60)",Low,High,Very Low,West
4788145,1637719771,Sudley,-77.4975,38.7929,0.53,-3.65,-2.29,3.08,1025,56,4.02,290,1,5.37,"[-85,-75)","[35,40)","[40,60)",Low,High,Low,West
4749950,1637719771,Burke,-77.2717,38.7934,0.85,-0.53,-1.94,2.93,1021,54,1.34,274,1,4.87,"[-85,-75)","[35,40)","[40,60)",Low,High,Very Low,West
4771075,1637719630,Lynchburg,-79.1423,37.4138,0.42,-1.34,-1.46,2.78,1025,56,1.54,310,1,4.24,"[-85,-75)","[35,40)","[40,60)",Low,High,Very Low,West
4759968,1637719771,Franconia,-77.1464,38.7821,1.05,-0.3,-1.69,2.95,1022,53,1.34,274,1,4.640000000000001,"[-85,-75)","[35,40)","[40,60)",Low,High,Very Low,West
4787117,1637719771,Springfield,-77.1872,38.7893,1.02,-0.34,-1.67,2.97,1022,54,1.34,274,1,4.640000000000001,"[-85,-75)","[35,40)","[40,60)",Low,High,Very Low,West
4782864,1637719771,Rose Hill,-77.1128,38.7887,1.24,-0.75,-1.52,3.09,1023,53,1.79,294,1,4.609999999999999,"[-85,-75)","[35,40)","[40,60)",Low,High,Very Low,West
4792867,1637719771,West Lynchburg,-79.1781,37.4032,0.08,-1.73,-1.79,1.78,1024,57,1.54,310,1,3.5700000000000003,"[-85,-75)","[35,40)","[40,60)",Low,High,Very Low,West
4751839,1637719771,Centreville,-77.4289,38.8404,0.38,-3.83,-2.38,2.73,1025,57,4.02,290,1,5.109999999999999,"[-85,-75)","[35,40)","[40,60)",Low,High,Low,West
4769608,1637719771,Lincolnia,-77.1433,38.8185,1.11,-0.9,-1.63,2.98,1023,53,1.79,294,1,4.609999999999999,"[-85,-75)","[35,40)","[40,60)",Low,High,Very Low,West
4351871,1637719770,Clinton,-76.8983,38.7651,1.24,-2.84,-1.51,3.36,1024,49,4.12,300,1,4.87,"[-85,-75)","[35,40)","[40,60)",Low,High,Low,West
4744468,1637719771,Annandale,-77.1964,38.8304,0.81,-0.57,-1.88,2.76,1023,53,1.34,274,1,4.64,"[-85,-75)","[35,40)","[40,60)",Low,High,Very Low,West
4744091,1637719630,Alexandria,-77.0469,38.8048,1.61,1.61,-1.07,3.39,1024,52,0.89,298,1,4.46,"[-85,-75)","[35,40)","[40,60)",Low,High,Very Low,West
4758023,1637719630,Fairfax,-77.3064,38.8462,0.49,-0.93,-2.43,2.6,1024,55,1.34,274,1,5.03,"[-85,-75)","[35,40)","[40,60)",Low,High,Very Low,West
4364759,1637719770,Oxon Hill,-76.9897,38.8035,1.3,1.3,-1.4,3.06,1023,49,0.45,27,1,4.46,"[-85,-75)","[35,40)","[40,60)",Low,High,Very Low,North
4470566,1637719771,Henderson,-78.3992,36.3296,-0.9,-3.91,-2.75,0.91,1026,69,2.34,347,0,3.66,"[-85,-75)","[35,40)","[60,80)",Very Low,High,Very Low,North
4791259,1637719771,Virginia Beach,-75.978,36.8529,4.67,0.02,0.71,7.03,1024,45,7.2,340,20,6.32,"[-85,-75)","[35,40)","[40,60)",Low,High,High,North
4356165,1637719770,Glassmanor,-76.9986,38.819,1.49,1.49,-1.22,3.25,1024,49,0.45,27,1,4.47,"[-85,-75)","[35,40)","[40,60)",Low,High,Very Low,North
4745272,1637719771,Baileys Crossroads,-77.1297,38.8504,1.12,-0.89,-1.64,2.97,1022,53,1.79,294,1,4.61,"[-85,-75)","[35,40)","[40,60)",Low,High,Very Low,West
4350288,1637719771,Camp Springs,-76.9066,38.804,1.18,-2.91,-1.45,2.93,1024,47,4.12,300,1,4.38,"[-85,-75)","[35,40)","[40,60)",Low,High,Low,West
4766586,1637719771,Jefferson,-77.1878,38.8646,0.93,0.93,-1.79,2.86,1022,53,0.45,302,1,4.65,"[-85,-75)","[35,40)","[40,60)",Low,High,Very Low,West
4776970,1637719771,Oakton,-77.3008,38.881,0.54,0.54,-2.37,2.65,1023,55,0.45,132,1,5.02,"[-85,-75)","[35,40)","[40,60)",Low,High,Very Low,East
4772735,1637719771,Merrifield,-77.2269,38.8743,0.78,-0.61,-1.93,2.77,1023,54,1.34,338,1,4.7,"[-85,-75)","[35,40)","[40,60)",Low,High,Very Low,North
4751935,1637719771,Chantilly,-77.4311,38.8943,0.43,-3.77,-2.55,2.78,1025,56,4.02,290,1,5.33,"[-85,-75)","[35,40)","[40,60)",Low,High,Low,West
4358082,1637719770,Hillcrest Heights,-76.9594,38.8329,1.16,1.16,-1.47,2.91,1024,49,0.45,27,1,4.38,"[-85,-75)","[35,40)","[40,60)",Low,High,Very Low,North
4787440,1637719630,Staunton,-79.0717,38.1496,-3.35,-3.35,-5.24,-1.14,1026,64,0,0,1,4.1000000000000005,"[-85,-75)","[35,40)","[60,80)",Very Low,High,Very Low,North
4791160,1637719771,Vienna,-77.2653,38.9012,0.66,-0.74,-2.34,2.71,1024,54,1.34,338,1,5.05,"[-85,-75)","[35,40)","[40,60)",Low,High,Very Low,North
4765553,1637719771,Idylwood,-77.2116,38.8951,0.57,-0.84,-2.16,2.54,1022,54,1.34,338,0,4.7,"[-85,-75)","[35,40)","[40,60)",Low,High,Very Low,North
4744709,1637719771,Arlington,-77.1043,38.881,1.09,-0.92,-1.55,2.91,1022,52,1.79,294,1,4.46,"[-85,-75)","[35,40)","[40,60)",Low,High,Very Low,West
4786667,1637719771,South Riding,-77.5039,38.9209,0.27,-4.03,-2.62,2.75,1024,56,4.12,290,1,5.37,"[-85,-75)","[35,40)","[40,60)",Low,High,Low,West
4370616,1637719770,Suitland,-76.9239,38.8487,1.13,1.13,-1.5,2.88,1024,49,0.45,27,1,4.38,"[-85,-75)","[35,40)","[40,60)",Low,High,Very Low,North
4790534,1637719771,Tysons Corner,-77.2311,38.9187,0.49,-0.93,-2.53,2.49,1023,54,1.34,338,1,5.02,"[-85,-75)","[35,40)","[40,60)",Low,High,Very Low,North
4763231,1637719630,Harrisonburg,-78.8689,38.4496,-3.58,-3.58,-5.36,-0.9,1024,71,0,0,1,4.46,"[-85,-75)","[35,40)","[60,80)",Very Low,High,Very Low,North
4140963,1637719770,Washington D.C.,-77.0364,38.8951,1.61,1.61,-1.07,3.39,1023,51,0.45,284,1,4.46,"[-85,-75)","[35,40)","[40,60)",Low,High,Very Low,West
4794350,1637719771,Wolf Trap,-77.2861,38.9398,0.74,-0.65,-2.22,2.83,1026,54,1.34,338,1,5.050000000000001,"[-85,-75)","[35,40)","[40,60)",Low,High,Very Low,North
4772354,1637719771,McLean,-77.1775,38.9343,0.96,0.96,-1.8,2.9,1023,54,0.89,290,0,4.7,"[-85,-75)","[35,40)","[40,60)",Low,High,Very Low,West
4763793,1637719771,Herndon,-77.3861,38.9696,0.45,-3.81,-2.36,2.69,1025,55,4.12,290,1,5.05,"[-85,-75)","[35,40)","[40,60)",Low,High,Low,West
4781530,1637719771,Reston,-77.3411,38.9687,0.58,-3.65,-2.29,2.76,1025,54,4.12,290,1,5.05,"[-85,-75)","[35,40)","[40,60)",Low,High,Low,West
4787534,1637719771,Sterling,-77.4286,39.0062,0.55,-3.31,-2.19,2.86,1026,56,3.58,300,1,5.05,"[-85,-75)","[35,40)","[40,60)",Low,High,Low,West
4761951,1637719771,Great Falls,-77.2883,38.9982,0.73,-3.47,-2.21,2.84,1026,55,4.12,290,1,5.05,"[-85,-75)","[35,40)","[40,60)",Low,High,Low,West
4360287,1637719770,Landover,-76.8966,38.934,1.52,-0.96,-0.99,3.3,1024,51,2.24,315,1,4.29,"[-85,-75)","[35,40)","[40,60)",Low,High,Very Low,North
4348599,1637719770,Bethesda,-77.1003,38.9807,0.92,-1.66,-1.88,2.82,1023,53,2.24,301,1,4.699999999999999,"[-85,-75)","[35,40)","[40,60)",Low,High,Very Low,West
4351383,1637719770,Chillum,-76.9908,38.9637,1.35,-1.16,-1.21,3.17,1024,53,2.24,315,1,4.38,"[-85,-75)","[35,40)","[40,60)",Low,High,Very Low,North
4358821,1637719770,Hyattsville,-76.9455,38.9559,1.49,-0.99,-1.08,3.3,1024,52,2.24,315,1,4.38,"[-85,-75)","[35,40)","[40,60)",Low,High,Very Low,North
4370890,1637719770,Takoma Park,-77.0075,38.9779,1.06,-1.5,-1.56,2.91,1024,53,2.24,315,1,4.470000000000001,"[-85,-75)","[35,40)","[40,60)",Low,High,Very Low,North
4353925,1637719770,East Riverdale,-76.9219,38.9621,1.48,-1,-1.01,3.28,1024,53,2.24,315,1,4.29,"[-85,-75)","[35,40)","[40,60)",Low,High,Very Low,North
4366001,1637719770,Potomac,-77.2086,39.0182,0.66,-1.97,-2.01,2.69,1024,55,2.24,301,1,4.699999999999999,"[-85,-75)","[35,40)","[40,60)",Low,High,Very Low,West
4369596,1637719770,Silver Spring,-77.0261,38.9907,0.95,-1.63,-1.58,2.8,1024,53,2.24,315,1,4.38,"[-85,-75)","[35,40)","[40,60)",Low,High,Very Low,North
4360314,1637719770,Langley Park,-76.9814,38.9887,1.32,-1.19,-1.22,3.16,1024,53,2.24,315,1,4.38,"[-85,-75)","[35,40)","[40,60)",Low,High,Very Low,North
4744870,1637719771,Ashburn,-77.4875,39.0437,0.45,-3.04,-2.49,2.88,1025,57,3.09,300,1,5.37,"[-85,-75)","[35,40)","[40,60)",Low,High,Low,West
4351977,1637719770,College Park,-76.9369,38.9807,1.5,1.5,-0.97,3.32,1025,53,0,0,1,4.29,"[-85,-75)","[35,40)","[40,60)",Low,High,Very Low,North
4369076,1637719770,Seabrook,-76.845,38.9679,1.3,1.3,-1.01,3.12,1025,53,0,0,1,4.13,"[-85,-75)","[35,40)","[40,60)",Low,High,Very Low,North
4346991,1637719770,Adelphi,-76.9719,39.0032,1.2,1.2,-1.32,3.06,1025,53,0,0,1,4.38,"[-85,-75)","[35,40)","[40,60)",Low,High,Very Low,North
4349159,1637719770,Bowie,-76.7303,38.9428,1.42,1.42,-0.8,3.19,1023,55,0.89,124,1,3.99,"[-85,-75)","[35,40)","[40,60)",Low,High,Very Low,East
4465088,1637719771,Elizabeth City,-76.2511,36.2946,2.54,-0.08,0.57,7.03,1025,65,2.57,290,1,6.46,"[-85,-75)","[35,40)","[60,80)",Low,High,Very Low,West
4363843,1637719770,North Bethesda,-77.1189,39.0446,0.7,-1.92,-2.03,2.67,1024,55,2.24,301,1,4.699999999999999,"[-85,-75)","[35,40)","[40,60)",Low,High,Very Low,West
4373349,1637719770,Wheaton,-77.0553,39.0398,0.64,0.64,-1.9,2.57,1024,55,0,0,1,4.47,"[-85,-75)","[35,40)","[40,60)",Low,High,Very Low,North
4488762,1637719771,Rocky Mount,-77.7905,35.9382,-1.63,-3.68,-1.96,1.06,1025,80,1.54,280,1,3.02,"[-85,-75)","[35,40)","[80,100)",Very Low,High,Very Low,West
4356847,1637719770,Greenbelt,-76.8755,39.0046,1.23,1.23,-1.05,3.08,1025,55,0,0,1,4.13,"[-85,-75)","[35,40)","[40,60)",Low,High,Very Low,North
4373449,1637719770,White Oak,-76.993,39.0398,0.81,-1.25,-1.76,2.71,1024,54,1.79,312,1,4.47,"[-85,-75)","[35,40)","[40,60)",Low,High,Very Low,West
4363990,1637719770,North Potomac,-77.265,39.0829,0.77,0.77,-2.05,2.9,1024,57,0.45,319,1,4.949999999999999,"[-85,-75)","[35,40)","[40,60)",Low,High,Very Low,North
4348353,1637719770,Beltsville,-76.9075,39.0348,1.36,-0.61,-1.05,3.24,1025,55,1.79,312,1,4.29,"[-85,-75)","[35,40)","[40,60)",Low,High,Very Low,West
